[
    {
        "summary": "A forest fire at Spot Pond is causing geese to flee across the street, and saving them all is impossible.",
        "tags": [
            "forest fire",
            "Spot Pond",
            "geese",
            "emergency"
        ],
        "location": "Spot Pond",
        "tragedy": true,
        "latitude": 42.4560792,
        "longitude": -71.095841,
        "text": "there is a forest fire at spot pond, geese are fleeing across the street, I cannot save them all"
    },
    {
        "summary": "The tweet discusses apocalypse lighting caused by wildfires in Spokane.",
        "tags": [
            "Spokane",
            "wildfires"
        ],
        "location": "Spokane",
        "tragedy": true,
        "latitude": 47.6571934,
        "longitude": -117.42351,
        "text": "Apocalypse lighting. #Spokane #wildfires"
    },
    {
        "summary": "Typhoon Soudelor causes 28 deaths in China and Taiwan.",
        "tags": [],
        "location": "China",
        "tragedy": true,
        "latitude": 35.000074,
        "longitude": 104.999927,
        "text": "Typhoon Soudelor kills 28 in China and Taiwan"
    },
    {
        "summary": "Fire breaks out at Birmingham's Wholesale Market.",
        "tags": [],
        "location": "Birmingham",
        "tragedy": "true",
        "latitude": 52.4796992,
        "longitude": -1.9026911,
        "text": "Birmingham Wholesale Market is ablaze BBC News - Fire breaks out at Birmingham's Wholesale Market http://t.co/irWqCEZWEU"
    },
    {
        "summary": "Bins in front of a field were set ablaze, causing flames to reach a hydro pole, suspect possibly someone known.",
        "tags": [],
        "location": "Toronto",
        "tragedy": true,
        "latitude": 43.6534817,
        "longitude": -79.3839347,
        "text": "@CTVToronto the bins in front of the field by my house wer set ablaze the other day flames went rite up the hydro pole wonder if it was him"
    },
    {
        "summary": "A hit and run accident occurred on the 500 block of SE Vista Terrace in Gresham, Oregon, during cold weather.",
        "tags": [
            "accident",
            "hit and run",
            "cold"
        ],
        "location": "Gresham, OR",
        "tragedy": true,
        "latitude": 45.4978623,
        "longitude": -122.4329883,
        "text": "ACCIDENT - HIT AND RUN - COLD at 500 BLOCK OF SE VISTA TER GRESHAM OR [Gresham Police #PG15000044357] 10:35 #pdx911"
    },
    {
        "summary": "Chief Collins describes being the last international team in Nepal during an aftershock, acting as first responders.",
        "tags": [
            "Nepal",
            "aftershock",
            "response",
            "disaster"
        ],
        "location": "Nepal",
        "tragedy": true,
        "latitude": 28.3780464,
        "longitude": 83.9999901,
        "text": "'When the aftershock happened (Nepal) we were the last int'l team still there; in a way we were 1st responders.' Chief Collins @LACo_FD"
    },
    {
        "summary": "Reflecting on the enduring impact of Hiroshima and its historical scars.",
        "tags": [],
        "location": "Hiroshima",
        "tragedy": true,
        "latitude": 34.3917241,
        "longitude": 132.4517589,
        "text": "'We are still living in the aftershock of Hiroshima people are still the scars of history.' - Edward Bond http://t.co/engTl5wrGp"
    },
    {
        "summary": "The user found out about Rewind Music and expressed support following an airplane accident in California.",
        "tags": [],
        "location": "California",
        "tragedy": true,
        "latitude": 36.7014631,
        "longitude": -118.755997,
        "text": "@rewind_music found out about you guys today(regarding the accident on the airplane lol) &amp; became a fan! Sending love &amp; support from Cali~?"
    },
    {
        "summary": "The tweet asks about the Keio line station and inquires about an airplane accident near Chofu airport.",
        "tags": [],
        "location": "Chofu airport",
        "tragedy": true,
        "latitude": 35.6714147,
        "longitude": 139.5291911,
        "text": "@Mintechan Hihow are you? There is Keio line on the stationright? BTW do you know the airplane accident near Chofu airport this week?"
    },
    {
        "summary": "A Mexican airplane accident in Ocampo Coahuila resulted in the death of Francisco Garcia Castells, SubSecretariat of Coahuila government.",
        "tags": [
            "Mexican",
            "airplane",
            "accident",
            "Ocampo",
            "Coahuila",
            "Mexico",
            "deaths"
        ],
        "location": "Ocampo, Coahuila",
        "tragedy": true,
        "latitude": 28.0529459,
        "longitude": -102.9729103,
        "text": "Mexican airplane accident in Ocampo Coahuila MX on 7/29/25 killed Coahuila government SubSecretariat Francisco Garcia Castells age 42."
    },
    {
        "summary": "A picture from the Penn Township airplane accident.",
        "tags": [
            "UPDATE",
            "Penn",
            "Twp",
            "airplane",
            "accident"
        ],
        "location": "Penn Township",
        "tragedy": true,
        "latitude": 41.9407576,
        "longitude": -85.9333159,
        "text": "#UPDATE: Picture from the Penn Twp. airplane accident. http://t.co/6JfgDnZRlC"
    },
    {
        "summary": "Experts in France are examining airplane debris found on Reunion Island following a French air accident.",
        "tags": [
            "BreakingNews",
            "France",
            "ReunionIsland",
            "airplane",
            "debris",
            "accident"
        ],
        "location": "Reunion Island",
        "tragedy": true,
        "latitude": -21.1307379,
        "longitude": 55.5364801,
        "text": "#BreakingNews Experts in France begin examining airplane debris found on Reunion Island: French air accident e...  http://t.co/3XIcUvlvlJ"
    },
    {
        "summary": "Twelve people are feared dead in a Pakistani air ambulance helicopter crash.",
        "tags": [],
        "location": "Pakistan",
        "tragedy": true,
        "latitude": 30.3308401,
        "longitude": 71.247499,
        "text": "Twelve feared killed in Pakistani air ambulance helicopter crash http://t.co/zdsug0UjS7"
    },
    {
        "summary": "Twelve people are feared dead in a Pakistani air ambulance helicopter crash.",
        "tags": [],
        "location": "Pakistan",
        "tragedy": true,
        "latitude": 30.3308401,
        "longitude": 71.247499,
        "text": "http://t.co/B2FaSrt1tN Twelve feared killed in Pakistani air ambulance helicopter crash http://t.co/O8BJXnEPQm"
    },
    {
        "summary": "Francis Joseph's crack regiment was annihilated on the Carso Plateau on August 3, 1915.",
        "tags": [],
        "location": "Carso Plateau",
        "tragedy": true,
        "latitude": 45.7550942,
        "longitude": 13.7932829,
        "text": "Aug 3 1915\u0089\u00db\u00d3KAISERJAEGERS WIPED OUT.; Francis Joseph's Crack Regiment Annihilated on Carso Plateau.\nhttp://t.co/D1sPSwl66H"
    },
    {
        "summary": "U.S National Park Services Tonto National Forest urges to stop the annihilation of the Salt River Wild Horse.",
        "tags": [],
        "location": "Tonto National Forest",
        "tragedy": true,
        "latitude": 33.8155607,
        "longitude": -111.5630278,
        "text": "U.S National Park Services Tonto National Forest: Stop the Annihilation of the Salt River Wild Horse... https://t.co/lATVr8RZCK via @Change"
    },
    {
        "summary": "U.S National Park Services Tonto National Forest calls to stop the annihilation of the Salt River Wild Horse.",
        "tags": [
            "NationalPark",
            "WildHorse",
            "Conservation",
            "SaltRiver"
        ],
        "location": "Tonto National Forest",
        "tragedy": true,
        "latitude": 33.8155607,
        "longitude": -111.5630278,
        "text": "U.S National Park Services Tonto National Forest: Stop the Annihilation of the Salt River Wild Horse... https://t.co/W5Rhtuey90 via @Change"
    },
    {
        "summary": "U.S National Park Services Tonto National Forest calls to stop the destruction of the Salt River Wild Horse.",
        "tags": [
            "NationalPark",
            "WildHorse",
            "Conservation"
        ],
        "location": "Tonto National Forest",
        "tragedy": true,
        "latitude": 33.8155607,
        "longitude": -111.5630278,
        "text": "U.S National Park Services Tonto National Forest: Stop the Annihilation of the Salt River Wild Horse... https://t.co/ZhXua8kmae via @Change"
    },
    {
        "summary": "Urgent call to stop the annihilation of the Salt River Wild Horses.",
        "tags": [
            "savewildhorses",
            "saltriverhorses"
        ],
        "location": "Salt River",
        "tragedy": true,
        "latitude": -33.9317008,
        "longitude": 18.4610056,
        "text": "RT SIGN URGENT Stop the Annihilation of the Salt River Wild Horses!!! #savewildhorses #saltriverhorses https://t.co/8AZjFF8eSi"
    },
    {
        "summary": "U.S National Park Services calls to stop the destruction of the Salt River Wild Horse.",
        "tags": [
            "NationalPark",
            "WildHorse",
            "Conservation"
        ],
        "location": "Tonto National Forest",
        "tragedy": true,
        "latitude": 33.8155607,
        "longitude": -111.5630278,
        "text": "U.S National Park Services Tonto National Forest: Stop the Annihilation of the Salt River Wild Horse... https://t.co/d82wlcP49S via @Change"
    },
    {
        "summary": "U.S National Park Services highlights the need to stop the destruction of the Salt River Wild Horse in Tonto National Forest.",
        "tags": [
            "NationalPark",
            "WildHorse",
            "Conservation"
        ],
        "location": "Tonto National Forest",
        "tragedy": true,
        "latitude": 33.8155607,
        "longitude": -111.5630278,
        "text": "U.S National Park Services Tonto National Forest: Stop the Annihilation of the Salt River Wild Horse... https://t.co/KAlDycTC4H via @Change"
    },
    {
        "summary": "U.S National Park Services urges to stop the destruction of the Salt River Wild Horse.",
        "tags": [
            "U.S",
            "NationalParkServices",
            "TontoNationalForest",
            "SaltRiverWildHorse"
        ],
        "location": "Tonto National Forest",
        "tragedy": true,
        "latitude": 33.8155607,
        "longitude": -111.5630278,
        "text": "U.S National Park Services Tonto National Forest: Stop the Annihilation of the Salt River Wild Horse... http://t.co/k0q4fnBzss via @Change"
    },
    {
        "summary": "A call to stop the annihilation of the Salt River Wild Horses.",
        "tags": [],
        "location": "Salt River",
        "tragedy": true,
        "latitude": -33.9317008,
        "longitude": 18.4610056,
        "text": "Stop the Annihilation of the Salt River Wild Horses!!! https://t.co/546utTXzAm via @Change"
    },
    {
        "summary": "U.S National Park Services urges to stop the annihilation of the Salt River Wild Horse in Tonto National Forest.",
        "tags": [
            "NationalPark",
            "WildHorse",
            "TontoNationalForest"
        ],
        "location": "Tonto National Forest",
        "tragedy": true,
        "latitude": 33.8155607,
        "longitude": -111.5630278,
        "text": "U.S National Park Services Tonto National Forest: Stop the Annihilation of the Salt River Wild Horse... https://t.co/FaXDzI90dY via @Change"
    },
    {
        "summary": "U.S National Park Services Tonto National Forest urges to stop the annihilation of the Salt River Wild Horse.",
        "tags": [],
        "location": "Tonto National Forest",
        "tragedy": true,
        "latitude": 33.8155607,
        "longitude": -111.5630278,
        "text": "U.S National Park Services Tonto National Forest: Stop the Annihilation of the Salt River Wild Horse... https://t.co/n6VeOjW3S8 via @Change"
    },
    {
        "summary": "U.S National Park Services urges to stop the annihilation of the Salt River Wild Horse at Tonto National Forest.",
        "tags": [
            "NationalPark",
            "SaltRiver",
            "WildHorse",
            "EnvironmentalIssue"
        ],
        "location": "Tonto National Forest",
        "tragedy": true,
        "latitude": 33.8155607,
        "longitude": -111.5630278,
        "text": "U.S National Park Services Tonto National Forest: Stop the Annihilation of the Salt River Wild Horse... https://t.co/i0z3k0chgg via @Change"
    },
    {
        "summary": "Turkey invades Israel, raising concerns about potential conflict escalation.",
        "tags": [
            "Turkey",
            "Israel",
            "Armageddon"
        ],
        "location": "Israel",
        "tragedy": true,
        "latitude": 30.8124247,
        "longitude": 34.8594762,
        "text": "#Turkey invades #Israel - Halfway to #Armageddon http://t.co/xUOh3sJNXF"
    },
    {
        "summary": "An arson suspect linked to 30 fires has been caught in Northern California.",
        "tags": [],
        "location": "Northern California",
        "tragedy": true,
        "latitude": 35.1345127,
        "longitude": 33.9225856,
        "text": "Arson suspect linked to 30 fires caught in Northern California http://t.co/z8tlcAdKOw"
    },
    {
        "summary": "Israeli police unable to solve the case of Duma arson attack",
        "tags": [],
        "location": "Duma",
        "tragedy": true,
        "latitude": 33.5696629,
        "longitude": 36.4012933,
        "text": "Israeli police unable to solve the case of Duma arson attack http://t.co/WtZgXzaf7Z"
    },
    {
        "summary": "The tweet alleges Muslims are setting wildfires across the American West as acts of arson, suggesting it as a jihad.",
        "tags": [
            "Muslims",
            "wildfires",
            "AmericanWest",
            "arson",
            "Jihad"
        ],
        "location": "American West",
        "tragedy": true,
        "latitude": -14.7816663,
        "longitude": -57.2871145,
        "text": "SHOCK REPORT: Muslims Setting Wildfires Across American West...Arson Jihad!\n\nhttp://t.co/92F4nKxjIu"
    },
    {
        "summary": "Mourning notices for stabbing arson victims in Israel highlight the politicization of grief.",
        "tags": [
            "BreakingNews",
            "rome"
        ],
        "location": "Israel",
        "tragedy": true,
        "latitude": 30.8124247,
        "longitude": 34.8594762,
        "text": "#BreakingNews Mourning notices for stabbing arson victims stir \u0089\u00db\u00f7politics of grief\u0089\u00db\u00aa in Israel: Posters f... http://t.co/KTKDrGVHgX #rome"
    },
    {
        "summary": "Mourning notices for stabbing arson victims in Israel highlight the politics of grief.",
        "tags": [],
        "location": "Israel",
        "tragedy": true,
        "latitude": 30.8124247,
        "longitude": 34.8594762,
        "text": "Mourning notices for stabbing arson victims stir \u0089\u00db\u00f7politics of grief\u0089\u00db\u00aa in Israel: Posters for Shira Banki and A... http://t.co/WbCtkGGTY9"
    },
    {
        "summary": "Police in Saginaw have released sketches of two persons of interest in a local arson case.",
        "tags": [],
        "location": "Saginaw",
        "tragedy": true,
        "latitude": 43.4200387,
        "longitude": -83.9490365,
        "text": "RT Saginaw - Police sketches of 2 'persons of interest' in Saginaw arson http://t.co/a2tZJ07nId http://t.co/LvtP5MHjaG"
    },
    {
        "summary": "Fire at Charlton Winery has been ruled as arson.",
        "tags": [],
        "location": "Charlton",
        "tragedy": true,
        "latitude": 30.8775388,
        "longitude": -82.1185847,
        "text": "Fire That Destroyed Charlton Winery Ruled To Be Arson http://t.co/4a9l0jrMYB"
    },
    {
        "summary": "An arson suspect linked to 30 fires was caught in Northern California.",
        "tags": [
            "arson",
            "fires",
            "law enforcement"
        ],
        "location": "Northern California",
        "tragedy": true,
        "latitude": 35.1345127,
        "longitude": 33.9225856,
        "text": "Arson suspect linked to 30 fires caught in Northern California http://t.co/HkFPyNb4PS"
    },
    {
        "summary": "Mourning notices for stabbing arson victims in Israel highlight the politics of grief.",
        "tags": [
            "mourning",
            "stabbing",
            "arson",
            "Israel",
            "politics",
            "grief"
        ],
        "location": "Israel",
        "tragedy": true,
        "latitude": 30.8124247,
        "longitude": 34.8594762,
        "text": "Mourning notices for stabbing arson victims stir \u0089\u00db\u00f7politics of grief\u0089\u00db\u00aa in Israel: Posters for Shira Banki and A... http://t.co/6o92wDfcLu"
    },
    {
        "summary": "Frank Elliott of a Chicago-area gay bar admits to an arson scheme.",
        "tags": [
            "Chicago",
            "GayBar",
            "Arson",
            "Crime"
        ],
        "location": "Chicago",
        "tragedy": true,
        "latitude": 41.8755616,
        "longitude": -87.6244212,
        "text": "Owner of Chicago-Area Gay Bar Admits to Arson Scheme: Frank Elliott pleaded guilty to hiring an arsonist to to... http://t.co/L82mrYxfNK"
    },
    {
        "summary": "An arsonist set a vegetarian restaurant in NYC on fire, according to police.",
        "tags": [
            "NewYork"
        ],
        "location": "New York City",
        "tragedy": true,
        "latitude": 40.7127281,
        "longitude": -74.0060152,
        "text": "Arsonist Sets NYC Vegetarian Restaurant on Fire: Police #NewYork - http://t.co/agn4cL4uSK"
    },
    {
        "summary": "An arsonist set fire to his house and getaway vehicle, according to police reports.",
        "tags": [],
        "location": "Surrey",
        "tragedy": true,
        "latitude": 51.2715316,
        "longitude": -0.3414524,
        "text": "Arsonist torches a house himself and his getaway vehicle police say - Surrey Leader http://t.co/q0J5lTVD6k @RichardGEarl"
    },
    {
        "summary": "A suspected serial arsonist has been arrested in Northern California.",
        "tags": [],
        "location": "Northern California",
        "tragedy": true,
        "latitude": 35.1345127,
        "longitude": 33.9225856,
        "text": "Suspected serial arsonist arrested in NorCal http://t.co/Dty4t75CGu http://t.co/MjxbygejyL"
    },
    {
        "summary": "Arson suspect linked to 30 fires caught in Northern California",
        "tags": [],
        "location": "Northern California",
        "tragedy": true,
        "latitude": 35.1345127,
        "longitude": 33.9225856,
        "text": "Arson suspect linked to 30 fires caught in Northern California https://t.co/emsXyWp5s5"
    },
    {
        "summary": "Texas has been criticized for a cruel attack on a dying gay man.",
        "tags": [],
        "location": "Texas",
        "tragedy": true,
        "latitude": 31.2638905,
        "longitude": -98.5456116,
        "text": "Texas\u0089\u00db\u00aas Gratuitously Cruel Attack On A Dying Gay\u00e5\u00caMan http://t.co/retdjqyCuB"
    },
    {
        "summary": "Suspect in latest US theatre attack had psychological issues",
        "tags": [],
        "location": "US",
        "tragedy": true,
        "latitude": 39.7837304,
        "longitude": -100.445882,
        "text": "Suspect in latest US theatre attack had psychological issues http://t.co/TvsvjuAVif http://t.co/npovfR4rGo"
    },
    {
        "summary": "A police officer was injured in a gunfight during an attack by suspected militants on a police post in Udhampur.",
        "tags": [],
        "location": "Udhampur",
        "tragedy": true,
        "latitude": 32.9219726,
        "longitude": 75.1331482,
        "text": "Cop injured in gunfight as militants attack Udhampur police post: Suspected militants attacked a police post i... http://t.co/ERW7FdxnCr"
    },
    {
        "summary": "A schoolgirl was attacked in Seaton Delaval park by a group of individuals led by a former friend in Newcastle.",
        "tags": [
            "newcastle"
        ],
        "location": "Seaton Delaval",
        "tragedy": true,
        "latitude": 55.0747281,
        "longitude": -1.5383775,
        "text": "Newcastle: Schoolgirl attacked in Seaton Delaval park by 'pack of animals' led by a former friend http://t.co/4xbrVNib9T #newcastle"
    },
    {
        "summary": "A Tennessee man was killed by police after attacking his family with a hatchet, according to 911 call.",
        "tags": [
            "Tennessee",
            "police",
            "attack",
            "hatchet",
            "911"
        ],
        "location": "Tennessee",
        "tragedy": true,
        "latitude": 35.7730076,
        "longitude": -86.2820081,
        "text": "Tennessee man killed by police attacked family with hatchet: 911\u00e5\u00cacall http://t.co/pWiw9q30DT"
    },
    {
        "summary": "A Christian was attacked by Muslims at the Temple Mount after waving an Israeli flag, reported by Pamela Geller.",
        "tags": [],
        "location": "Temple Mount",
        "tragedy": true,
        "latitude": 31.7780011,
        "longitude": 35.2357399,
        "text": "Christian Attacked by Muslims at the Temple Mount after Waving Israeli Flag via Pamela Geller - ... http://t.co/7kxGS7VDFy"
    },
    {
        "summary": "Lone Pine trees are growing across the country in remembrance of the Battle of Gallipoli 100 years ago.",
        "tags": [
            "environment",
            "Gallipoli"
        ],
        "location": "Gallipoli",
        "tragedy": true,
        "latitude": 40.05672,
        "longitude": 17.996423,
        "text": "#environment Lone Pine trees growing across the country in remembrance of battle at Gallipoli 100 years ago: T... http://t.co/GJCAAnfCYk"
    },
    {
        "summary": "The tweet claims the largest bioterrorism attack on U.S. soil involved tacos.",
        "tags": [
            "bioterrorism",
            "attack",
            "U.S.",
            "tacos",
            "atlasobscura"
        ],
        "location": "U.S.",
        "tragedy": true,
        "latitude": 39.7837304,
        "longitude": -100.445882,
        "text": "The largest bioterrorism attack on U.S. soil involved tacos @atlasobscura http://t.co/1n9CRhWmgl"
    },
    {
        "summary": "A fire caused by an electric towel warmer destroyed several businesses in Port Coquitlam last week.",
        "tags": [
            "fire",
            "PortCoquitlam",
            "electric",
            "towelwarmer",
            "blaze",
            "businesses"
        ],
        "location": "Port Coquitlam",
        "tragedy": true,
        "latitude": 49.2621643,
        "longitude": -122.780542,
        "text": "Port Coquitlam fire crews say an electric towel warmer started the four alarm blaze last week that destroyed several businesses."
    },
    {
        "summary": "A fire near Portland has left people homeless in Lithgow.",
        "tags": [],
        "location": "Portland",
        "tragedy": true,
        "latitude": 45.5202471,
        "longitude": -122.674194,
        "text": "Lithgow News: Homeless after blaze near Portland http://t.co/Cht5w3znIK"
    },
    {
        "summary": "A series of wildfires are ongoing in Northern California.",
        "tags": [],
        "location": "Northern California",
        "tragedy": true,
        "latitude": 35.1345127,
        "longitude": 33.9225856,
        "text": "Satelite Shot: Series of wildfires in Northern California continue blazing: There are at least five fire compl... http://t.co/BmGuHqY7W4"
    },
    {
        "summary": "California is hot but not blazing despite ongoing wildfires including the Rocky Fire.",
        "tags": [
            "California",
            "wildfires",
            "RockyFire"
        ],
        "location": "California",
        "tragedy": true,
        "latitude": 36.7014631,
        "longitude": -118.755997,
        "text": "@BlazingRoselia California is hot but not blazing even though there are wildfires going on now. Even the big massive Rocky fire"
    },
    {
        "summary": "A suicide bombing has targeted a mosque in Saudi Arabia resulting in casualties.",
        "tags": [
            "suicide",
            "bombing",
            "mosque",
            "Saudi Arabia"
        ],
        "location": "Saudi Arabia",
        "tragedy": true,
        "latitude": 25.6242618,
        "longitude": 42.3528328,
        "text": "Deadly suicide bombing hits mosque in Saudi Arabia: A suicide bomber has blown himself up at a mosque in the s... http://t.co/RkvU3xjAzH"
    },
    {
        "summary": "A tweet expressing a wish for Zayn to be harmed in a drone attack while in Pakistan.",
        "tags": [],
        "location": "Pakistan",
        "tragedy": true,
        "latitude": 30.3308401,
        "longitude": 71.247499,
        "text": "@MalikChaimaa I hope Zayn gets blown up in a drone attack whilst visiting family in Pakistan ??"
    },
    {
        "summary": "A tweet criticizing Saudi Arabia for bringing home fallen soldiers from Yemen, questioning the reason behind the casualties.",
        "tags": [
            "Saudi",
            "Yemen",
            "Saudi Kingdom ego"
        ],
        "location": "Yemen",
        "tragedy": true,
        "latitude": 16.3471243,
        "longitude": 47.8915271,
        "text": "RT Hamosh84: This how the #Saudi is coming home from #Yemen in body bags. For what? #Saudi Kingdom ego? You're loo\u0089\u00db_ http://t.co/LJlKWGXgjY"
    },
    {
        "summary": "A widely retweeted tweet in Japan features a young person admitting ignorance of the 70th anniversary of the Hiroshima bomb.",
        "tags": [
            "Japan",
            "Hiroshima",
            "anniversary"
        ],
        "location": "Japan",
        "tragedy": true,
        "latitude": 36.5748441,
        "longitude": 139.2394179,
        "text": "One of the top RT-ed tweets in #Japan is a screenshot of a young person claiming to not know the 70th anniversary of the Hiroshima bomb"
    },
    {
        "summary": "Hiroshima commemorates the 70th anniversary of the atomic bombing.",
        "tags": [
            "Hiroshima",
            "anniversary",
            "bomb"
        ],
        "location": "Hiroshima",
        "tragedy": true,
        "latitude": 34.3917241,
        "longitude": 132.4517589,
        "text": "Hiroshima marks 70 years since bomb: The Japanese city of Hiroshima marks the 70th anniversary of the dropping... http://t.co/INRGS4z0AC"
    },
    {
        "summary": "The tweet commemorates the first atomic bombing of Hiroshima on August 6, 1945.",
        "tags": [],
        "location": "Hiroshima",
        "tragedy": true,
        "latitude": 34.3917241,
        "longitude": 132.4517589,
        "text": "RIP RT @AJENews: On Aug. 6 1945 at 8:16 AM Tokyo time the world\u0089\u00db\u00aas 1st atom bomb on Hiroshima http://t.co/6Q5CS9MCdW http://t.co/7OGFoQr0MG"
    },
    {
        "summary": "A tweet questioning why American censors suppressed accounts of suffering in Nagasaki.",
        "tags": [],
        "location": "Nagasaki",
        "tragedy": true,
        "latitude": 33.1154683,
        "longitude": 129.7874339,
        "text": "Why American censors supressed accounts of suffering in Nagasaki http://t.co/kZbeas50KE http://t.co/YQgpaSX3MG"
    },
    {
        "summary": "Commemorating the 70th anniversary of the Hiroshima bombing, one of the greatest acts of mass murder in history.",
        "tags": [
            "Hiroshima",
            "anniversary",
            "massmurder"
        ],
        "location": "Hiroshima",
        "tragedy": true,
        "latitude": 34.3917241,
        "longitude": 132.4517589,
        "text": "At this hour 70 yrs ago one of the greatest acts of mass murder in world history occurred when #Hiroshima was bombed. http://t.co/2QJl5MfKzv"
    },
    {
        "summary": "The tweet reflects on the 70th anniversary of the bombing of Hiroshima and questions its justification.",
        "tags": [
            "noMOREHiroshimas",
            "VJDay70",
            "FEPOW"
        ],
        "location": "Hiroshima",
        "tragedy": true,
        "latitude": 34.3917241,
        "longitude": 132.4517589,
        "text": "70 years ago nowish America bombed #Hiroshima. Was it justified? All I can say is #noMOREHiroshimas #VJDay70 #FEPOW http://t.co/SYADSa6QeS"
    },
    {
        "summary": "Hiroshima was bombed with the nuclear weapon Little Boy carried by the plane Enola Gay on July 6, 1945.",
        "tags": [
            "Hiroshima",
            "nuclear",
            "bomb",
            "Little Boy",
            "Enola Gay",
            "war",
            "history"
        ],
        "location": "Hiroshima",
        "tragedy": true,
        "latitude": 34.3917241,
        "longitude": 132.4517589,
        "text": "6th July 1945 ...Hiroshima was bombed with nuclear weapon _bomb was named little boy&amp;carried in a plane called Enola Gay ...1/2"
    },
    {
        "summary": "The bombing of Hiroshima in 1945.",
        "tags": [],
        "location": "Hiroshima",
        "tragedy": true,
        "latitude": 34.3917241,
        "longitude": 132.4517589,
        "text": "Bombing of Hiroshima 1945. http://t.co/4UHq9jKCvq"
    },
    {
        "summary": "Hiroshima marks the 70th anniversary of the atomic bombing.",
        "tags": [
            "Hiroshima",
            "anniversary",
            "atomic",
            "bombing"
        ],
        "location": "Hiroshima",
        "tragedy": true,
        "latitude": 34.3917241,
        "longitude": 132.4517589,
        "text": "#Hiroshima marks 70th anniversary of atomic bombing ( via NHK WORLD News) http://t.co/qGWoyNJLY8"
    },
    {
        "summary": "Japan is set to commemorate the 70th anniversary of the Hiroshima atomic bombing.",
        "tags": [],
        "location": "Hiroshima",
        "tragedy": true,
        "latitude": 34.3917241,
        "longitude": 132.4517589,
        "text": "Japan to mark 70th anniversary of Hiroshima atomic bombing http://t.co/RUQPVtdBzT"
    },
    {
        "summary": "Japan commemorates the 70th anniversary of the Hiroshima atomic bombing.",
        "tags": [
            "Hiroshima",
            "atomicbomb",
            "anniversary",
            "Japan",
            "history"
        ],
        "location": "Hiroshima, Japan",
        "tragedy": true,
        "latitude": 34.3917241,
        "longitude": 132.4517589,
        "text": "Just Happened in Asia: Japan marks 70th anniversary of Hiroshima atomic bombing http://t.co/E5dEmdScEh"
    },
    {
        "summary": "A look into the experience of surviving the atomic bombing of Hiroshima.",
        "tags": [],
        "location": "Hiroshima",
        "tragedy": true,
        "latitude": 34.3917241,
        "longitude": 132.4517589,
        "text": "What it was like to survive the atomic bombing of Hiroshima http://t.co/0cvXS2E1Er"
    },
    {
        "summary": "Celebrating the 70th Anniversary of the Hiroshima bombing.",
        "tags": [],
        "location": "Hiroshima",
        "tragedy": true,
        "latitude": 34.3917241,
        "longitude": 132.4517589,
        "text": "70th Anniversary of Hiroshima bombing https://t.co/juwvomhGPd"
    },
    {
        "summary": "Japan marks the 70th anniversary of the atomic bombing of Hiroshima.",
        "tags": [],
        "location": "Hiroshima",
        "tragedy": true,
        "latitude": 34.3917241,
        "longitude": 132.4517589,
        "text": "Japan marks the 70th anniversary of the atomic bombing of Hiroshima. http://t.co/YmKn1IwPvF http://t.co/mMmJ8Bo9y3"
    },
    {
        "summary": "Japan marks the 70th anniversary of the Hiroshima atomic bombing.",
        "tags": [],
        "location": "Hiroshima",
        "tragedy": true,
        "latitude": 34.3917241,
        "longitude": 132.4517589,
        "text": "'Japan Marks 70th Anniversary of Hiroshima Atomic Bombing' by THE ASSOCIATED PRESS via NYT http://t.co/kKULqGB9e3"
    },
    {
        "summary": "Discussion of Hiroshima's atomic bombing narrative.",
        "tags": [
            "Hiroshima70",
            "japan"
        ],
        "location": "Hiroshima",
        "tragedy": true,
        "latitude": 34.3917241,
        "longitude": 132.4517589,
        "text": "The 'sanitised narrative' of Hiroshima's atomic bombing. #Hiroshima70 #japan http://t.co/zsyj6sqYCn"
    },
    {
        "summary": "Japan commemorates the 70th anniversary of the Hiroshima atomic bombing with bells tolling in Hiroshima.",
        "tags": [],
        "location": "Hiroshima",
        "tragedy": true,
        "latitude": 34.3917241,
        "longitude": 132.4517589,
        "text": "Japan marks 70th anniversary of Hiroshima atomic bombing: Bells tolled in Hiroshima on Thursday as Japan marke... http://t.co/IqAIRPdIhg"
    },
    {
        "summary": "Japan commemorates the 70th anniversary of the Hiroshima atomic bombing.",
        "tags": [
            "Japan",
            "Hiroshima",
            "anniversary",
            "atomicbombing"
        ],
        "location": "Hiroshima",
        "tragedy": true,
        "latitude": 34.3917241,
        "longitude": 132.4517589,
        "text": "Japan marks 70th anniversary of Hiroshima atomic bombing http://t.co/MLZxmGVuIh"
    },
    {
        "summary": "Commemoration of the 70th anniversary of the atomic bombing of Hiroshima, highlighting it as a terrible mass murder.",
        "tags": [
            "Hiroshima",
            "atomicbomb",
            "massmurder",
            "anniversary"
        ],
        "location": "Hiroshima",
        "tragedy": true,
        "latitude": 34.3917241,
        "longitude": 132.4517589,
        "text": "70 yrs since the atomic bombing of Hiroshima... Terrible mass murder..."
    },
    {
        "summary": "Reflecting on citizen media during the Minneapolis bridge collapse on Throwback Thursday.",
        "tags": [
            "TBT"
        ],
        "location": "Minneapolis",
        "tragedy": true,
        "latitude": 44.9772995,
        "longitude": -93.2654692,
        "text": "Throwback Thursday: More Thoughts About Citizen Media During Minneapolis Bridge Collapse Disaster - http://t.co/GudUDAZ4fx \n#TBT"
    },
    {
        "summary": "A throwback Thursday post about the Minneapolis bridge collapse and citizen journalism.",
        "tags": [
            "TBT"
        ],
        "location": "Minneapolis",
        "tragedy": true,
        "latitude": 44.9772995,
        "longitude": -93.2654692,
        "text": "Throwback Thursday: Minneapolis Bridge Collapse &amp; Citizen Journalism - http://t.co/bXV3vlMBBp \n#TBT http://t.co/iBmqVWrVyz"
    },
    {
        "summary": "Two injured and one missing person in a bridge collapse in central Mexico.",
        "tags": [],
        "location": "central Mexico",
        "tragedy": true,
        "latitude": 25.7147245,
        "longitude": -100.3441188,
        "text": "2 Injured 1 missing in bridge collapse in central Mexico http://t.co/scDa8eVwR6"
    },
    {
        "summary": "Five people were injured in a bridge collapse at the Swiss Metropol Hotel.",
        "tags": [],
        "location": "Switzerland",
        "tragedy": true,
        "latitude": 46.7985624,
        "longitude": 8.2319736,
        "text": "5 injured in bridge collapse at Swiss kosher hotel: The accident occurred on Tuesday at the Metropol Hotel a ... http://t.co/sIGeZlynJ9"
    },
    {
        "summary": "The tweet imagines teenagers taking selfies in front of burning buildings if 9/11 happened today.",
        "tags": [],
        "location": "New York City",
        "tragedy": true,
        "latitude": 40.7127281,
        "longitude": -74.0060152,
        "text": "a very scary thought is if 9/11 had happened today their would be teenagers taking selfies in front of the burning buildings"
    },
    {
        "summary": "A fire is burning several businesses in Port Coquitlam.",
        "tags": [
            "fire",
            "Port Coquitlam"
        ],
        "location": "Port Coquitlam",
        "tragedy": "true",
        "latitude": 49.2621643,
        "longitude": -122.780542,
        "text": "Port Coquitlam fire burning several businesses http://t.co/Q5FzYLBvTk"
    },
    {
        "summary": "The multiple fires in Albania have caused the first victim in a bushfire incident.",
        "tags": [
            "Bush"
        ],
        "location": "Albania",
        "tragedy": true,
        "latitude": 41.000028,
        "longitude": 19.9999619,
        "text": "Bushfire causes first victim in Albania ::  The multiple fires in Albania have caused the first vict http://t.co/yuba6XmBlq #Bush"
    },
    {
        "summary": "The tweet mentions bushfires in Australia and attributes the cause to heat.",
        "tags": [
            "bushfires",
            "Australia",
            "hot"
        ],
        "location": "Australia",
        "tragedy": true,
        "latitude": -24.7761086,
        "longitude": 134.755,
        "text": "@jiminswang i was about 2 say bush fires in aus but the reason is hot"
    },
    {
        "summary": "Multiple fires in Albania have caused the first victim in a bushfire incident.",
        "tags": [
            "Bush"
        ],
        "location": "Albania",
        "tragedy": true,
        "latitude": 41.000028,
        "longitude": 19.9999619,
        "text": "Bushfire causes first victim in Albania ::  The multiple fires in Albania have caused the first vict http://t.co/yuba6XmBlq #Bush"
    },
    {
        "summary": "American weapons and support are fueling a bloody air war in Yemen.",
        "tags": [],
        "location": "Yemen",
        "tragedy": true,
        "latitude": 16.3471243,
        "longitude": 47.8915271,
        "text": "American Weapons and Support Are Fueling a Bloody Air War in Yemen http://t.co/ZBLU4xXo44"
    },
    {
        "summary": "More women and children casualties due to Afghan violence.",
        "tags": [],
        "location": "Afghanistan",
        "tragedy": true,
        "latitude": 33.7680065,
        "longitude": 66.2385139,
        "text": "More women children casualties of Afghan violence http://t.co/OstkZA1qaX"
    },
    {
        "summary": "A memorial day commemorating the 70th anniversary of Hiroshima and Nagasaki with over 200,000 casualties.",
        "tags": [
            "MemorialDay",
            "Hiroshima",
            "Nagasaki",
            "Casualties"
        ],
        "location": "Hiroshima",
        "tragedy": true,
        "latitude": 34.3917241,
        "longitude": 132.4517589,
        "text": "Memorial day of 70 years Hiroshima and Nagasaki (69 august 1945) wth total casualties 200.000+ . God forgive them!"
    },
    {
        "summary": "American weapons and support are fueling a bloody air war in Yemen.",
        "tags": [],
        "location": "Yemen",
        "tragedy": true,
        "latitude": 16.3471243,
        "longitude": 47.8915271,
        "text": "American Weapons and Support Are Fueling a Bloody Air War in Yemen http://t.co/F7ZcqaOcY7"
    },
    {
        "summary": "The tweet encourages examining casualties on Iwo Jima and Okinawa to understand the scale of the deaths.",
        "tags": [],
        "location": "Iwo Jima",
        "tragedy": true,
        "latitude": 24.7803301,
        "longitude": 141.3205867,
        "text": "@DonteStallworth @SteveSGoddard if you look at the casualties on Iwo Jima and Okinawa and the numbers dead on both sides you'll see it."
    },
    {
        "summary": "The Allies forecast that an invasion of Japan would result in at least 1 million casualties.",
        "tags": [],
        "location": "Japan",
        "tragedy": true,
        "latitude": 36.5748441,
        "longitude": 139.2394179,
        "text": "@Cameron_Surname @chrisg0000 The Allies forecast an Invasion of Japan had a minimum of 1 million casualties that is a minimum."
    },
    {
        "summary": "Gaza 2014 - The Summer of Catastrophe",
        "tags": [
            "gaza",
            "palestine",
            "israel",
            "BDS"
        ],
        "location": "Gaza",
        "tragedy": true,
        "latitude": -23.328398,
        "longitude": 32.8066057,
        "text": "Gaza 2014 - The Summer of Catastrophe https://t.co/gm3YI1D1dV #gaza #palestine #israel #BDS"
    },
    {
        "summary": "There is a major water crisis in Puerto Rico described as a catastrophe.",
        "tags": [],
        "location": "Puerto Rico",
        "tragedy": true,
        "latitude": 18.2247706,
        "longitude": -66.4858295,
        "text": "@BarackObama hello Mr. President there is a really big problem in Puerto Rico regarding the water situation no more like a catastrophe..."
    },
    {
        "summary": "Alaska's wolves face a catastrophe as the Alexander Archipelago Wolves population drops 60% in one year.",
        "tags": [
            "Wolves",
            "ArchipelagoWolves"
        ],
        "location": "Alaska",
        "tragedy": true,
        "latitude": 64.4459613,
        "longitude": -149.680909,
        "text": "Alaska's #Wolves face catastrophe Alexander #ArchipelagoWolves population plummeted 60% in 1 yr. Be their voice:  http://t.co/vCpKdbnSfp"
    },
    {
        "summary": "Following a catastrophic event, the United States is decimated as the President prepares a message post-apocalypse.",
        "tags": [],
        "location": "United States",
        "tragedy": true,
        "latitude": 39.7837304,
        "longitude": -100.445882,
        "text": "[WP] Following a catastrophic event the United States is decimated. The President prepares his first post apocaly\u0089\u00db_ http://t.co/6eCMRxUyR6"
    },
    {
        "summary": "The devastating impacts of the Hiroshima and Nagasaki atomic bombings are still experienced today.",
        "tags": [
            "Hiroshima",
            "Nagasaki",
            "AtomicBombings"
        ],
        "location": "Hiroshima",
        "tragedy": true,
        "latitude": 34.3917241,
        "longitude": 132.4517589,
        "text": "The Catastrophic Effects of Hiroshima and Nagasaki Atomic Bombings Still Being Felt Today http://t.co/W1iFF7ddvy"
    },
    {
        "summary": "A massive cliff landslide occurred on a road in China, capturing the collapse of rocks.",
        "tags": [],
        "location": "China",
        "tragedy": true,
        "latitude": 35.000074,
        "longitude": 104.999927,
        "text": "Huge cliff landslide on road in China: Watch the moment a cliff collapses as huge chunks of rock fall onto a r... http://t.co/LKDO0momtw"
    },
    {
        "summary": "Greece's tax revenues are collapsing amid the ongoing debt crisis.",
        "tags": [
            "Greece",
            "tax",
            "debt",
            "crisis"
        ],
        "location": "Greece",
        "tragedy": true,
        "latitude": 38.9953683,
        "longitude": 21.9877132,
        "text": "The Guardian Greece's tax revenues collapse as debt crisis continues The Guardian Fresh\u0089\u00db_ http://t.co/L0ARQL2q2O"
    },
    {
        "summary": "Residents set up a sign as a tribute to families who lost their lives in the Thane building collapse.",
        "tags": [],
        "location": "Thane",
        "tragedy": true,
        "latitude": 19.3653598,
        "longitude": 73.3685437,
        "text": "Residents set up sign as tribute to families who lost their lives in the Thane building collapse: The unfortun...  http://t.co/zT6wANhXuj"
    },
    {
        "summary": "A memorial for the victims of the 35W bridge collapse.",
        "tags": [],
        "location": "Minneapolis, Minnesota",
        "tragedy": true,
        "latitude": 44.9772995,
        "longitude": -93.2654692,
        "text": "35W Memorial honoring those who died when the bridge collapsed. http://t.co/qIb5fYaLGs"
    },
    {
        "summary": "Motorcyclist and bicyclist injured in a collision on Broadway in Denver, with at least two people taken to a local hospital.",
        "tags": [],
        "location": "Denver",
        "tragedy": true,
        "latitude": 39.7392364,
        "longitude": -104.984862,
        "text": "Motorcyclist bicyclist injured in Denver collision on Broadway: At least two people were taken to a local\u0089\u00db_ http://t.co/PMv8ZDFnmr"
    },
    {
        "summary": "A 10-year-old named Banjo Pilon died after a skateboarding crash at Wamberal.",
        "tags": [],
        "location": "Wamberal",
        "tragedy": true,
        "latitude": -33.431813,
        "longitude": 151.4427676,
        "text": "'Our little angel': Banjo Pilon 10 dies after skateboarding crash at Wamberal: At the weekend 10-year-old B... http://t.co/5bcOQB6Cff"
    },
    {
        "summary": "A train crash in India has resulted in the deaths of dozens of people.",
        "tags": [],
        "location": "India",
        "tragedy": true,
        "latitude": 22.3511148,
        "longitude": 78.6677428,
        "text": "New post: 'India Train Crash Kills Dozens' http://t.co/6OQaZmQa3L"
    },
    {
        "summary": "Pakistan reports an army helicopter crash in the country's restive northwest.",
        "tags": [
            "Pakistan",
            "army",
            "helicopter",
            "crash"
        ],
        "location": "Northwest Pakistan",
        "tragedy": true,
        "latitude": 38.9435143,
        "longitude": -77.0680334,
        "text": "aQgcO mhtw4fnet\n\nPakistan says army helicopter has crashed in country's restive northwest  - Fox News"
    },
    {
        "summary": "Pak army helicopter crashed in Mansehra, and people are asked to pray for the departed souls.",
        "tags": [],
        "location": "Mansehra",
        "tragedy": true,
        "latitude": 34.3286855,
        "longitude": 73.1993125,
        "text": "Pak army helicopter crashed in Mansehra. \nPray for departed souls. http://t.co/XclNBVvfSi"
    },
    {
        "summary": "Army Medical Corps helicopter crashed near Mansehra, resulting in 8 personnel martyred.",
        "tags": [
            "Army",
            "helicopter",
            "crash",
            "Mansehra",
            "loss of life"
        ],
        "location": "Mansehra",
        "tragedy": true,
        "latitude": 34.3286855,
        "longitude": 73.1993125,
        "text": "08 Army personnel including 5 Majors were martyred when a helicopter of Army Medical Corps crashed near Mansehra. http://t.co/wyMrtwsZHU"
    },
    {
        "summary": "Alpine City Park was vandalized with $2500 in damage.",
        "tags": [],
        "location": "Alpine",
        "tragedy": true,
        "latitude": 38.5893934,
        "longitude": -119.8345013,
        "text": "Alpine city park vandalized $2500 in damage http://t.co/fwk8puB2wF"
    },
    {
        "summary": "The tweet expresses shock and sadness over Val's death in Emmerdale's Summer Fate storyline.",
        "tags": [
            "SummerFate"
        ],
        "location": "Emmerdale",
        "tragedy": true,
        "latitude": -37.6270334,
        "longitude": 145.0754877,
        "text": "@emmerdale #SummerFate that was so intense!! Can't believe Val's dead!!????"
    },
    {
        "summary": "Flood in Kaduna leads to two deaths and 60 houses destroyed.",
        "tags": [
            "Flood",
            "Kaduna"
        ],
        "location": "Kaduna",
        "tragedy": true,
        "latitude": 10.5182899,
        "longitude": 7.4359863,
        "text": "411Naija \u00e5\u00c8 Flood: Two people dead 60 houses destroyed in Kaduna http://t.co/yAvL49DoOF"
    },
    {
        "summary": "Infections are increasing neonatal deaths in Guyana according to the Health Minister.",
        "tags": [
            "Guyana"
        ],
        "location": "Guyana",
        "tragedy": true,
        "latitude": 4.8417097,
        "longitude": -58.6416891,
        "text": "Infections driving up neonatal deaths \u0089\u00db\u00d2 Health Minister #Guyana http://t.co/ImugNXrEBN"
    },
    {
        "summary": "Reunion debris has been identified as coming from the missing Malaysia flight MH370.",
        "tags": [
            "BBC",
            "MH370",
            "reunion",
            "debris",
            "missing",
            "Malaysia flight"
        ],
        "location": "Reunion",
        "tragedy": true,
        "latitude": -21.1309332,
        "longitude": 55.5265771,
        "text": "BBC News - MH370: Reunion debris is from missing Malaysia flight http://t.co/bze47fzKUd"
    },
    {
        "summary": "Debris found on Reunion Island is from a missing Malaysian jet, confirming the aircraft's wreckage.",
        "tags": [
            "news",
            "MalaysianJet",
            "ReunionIsland"
        ],
        "location": "Reunion Island",
        "tragedy": true,
        "latitude": -21.1307379,
        "longitude": 55.5364801,
        "text": "#news Island Wreckage Is From Missing Malaysian Jet: Officials: Debris found on Reunion Island is from flight ... http://t.co/kRvUmMtVY2"
    },
    {
        "summary": "Malaysian PM confirms debris from missing flight MH370, offering hope for closure to families.",
        "tags": [
            "MH370"
        ],
        "location": "Malaysia",
        "tragedy": true,
        "latitude": 4.5693754,
        "longitude": 102.2656823,
        "text": "Hopefully this will bring some closure for the families #MH370: Malaysian PM confirms debris is from missing flight http://t.co/2963y36LdF"
    },
    {
        "summary": "Officials say the debris found in R\u00e9union is almost surely from Flight 370.",
        "tags": [],
        "location": "R\u00e9union",
        "tragedy": true,
        "latitude": -21.1307379,
        "longitude": 55.5364801,
        "text": "R\u00cc\u00a9union Debris Is Almost Surely From Flight 370 Officials Say http://t.co/hJ1BX8Bgu1"
    },
    {
        "summary": "Malaysia confirms aircraft debris found on island is from MH370.",
        "tags": [
            "AUS",
            "MH370",
            "abc"
        ],
        "location": "Malaysia",
        "tragedy": true,
        "latitude": 4.5693754,
        "longitude": 102.2656823,
        "text": "#AUS Aircraft debris found on island is from MH370 Malaysia confirms http://t.co/1zFGk9ET5v #abc"
    },
    {
        "summary": "Reunion debris has been confirmed to be from the missing MH370 plane.",
        "tags": [],
        "location": "Reunion",
        "tragedy": true,
        "latitude": -21.1309332,
        "longitude": 55.5265771,
        "text": "Top story: MH370: Reunion debris is from missing plane - BBC News http://t.co/jasWg2MwIi see more http://t.co/qgk64YPN13"
    },
    {
        "summary": "Malaysia's Prime Minister confirms debris is part of MH370's wing.",
        "tags": [
            "MH370"
        ],
        "location": "Malaysia",
        "tragedy": true,
        "latitude": 4.5693754,
        "longitude": 102.2656823,
        "text": "Per Malaysia's PM 'this piece of debris ... is conclusively a part from the wing of #MH370.' More right now http://t.co/Bd3ik4oz2r"
    },
    {
        "summary": "Police are searching for two people after rain and mud caused flooding in Tetovo.",
        "tags": [
            "Deutsche",
            "Sprache"
        ],
        "location": "Tetovo",
        "tragedy": true,
        "latitude": 42.0068297,
        "longitude": 20.9728556,
        "text": "Police are still searching for two people after rain and mud deluged the western town of Tetovo\u0089\u00db_ http://t.co/XPhZ3GoUhR #Deutsche #Sprache"
    },
    {
        "summary": "Hyderabad experienced heavy rainfall leading to flooding.",
        "tags": [
            "Hyderabad",
            "heavy rainfall",
            "flood"
        ],
        "location": "Hyderabad",
        "tragedy": true,
        "latitude": 17.360589,
        "longitude": 78.4740613,
        "text": "Glimpses: &lt;b&gt;Hyderabad&lt;/b&gt; deluged by heavy rainfall: HYDERABAD: With flood waters heading\u0089\u00db_ http://t.co/TWFWTxZ2dS"
    },
    {
        "summary": "A tire repair shop structure in Bethlehem was demolished by Zionists.",
        "tags": [
            "Zionist",
            "Terrorist",
            "Bethlehem"
        ],
        "location": "Bethlehem",
        "tragedy": true,
        "latitude": -1.45056,
        "longitude": -48.4682453,
        "text": "RT AbbsWinston: #Zionist #Terrorist Demolish Tire Repair Shop Structure in #Bethlehem\nhttp://t.co/Om3ntQIh2m http://t.co/6SAS3fuahA"
    },
    {
        "summary": "The Bluff Creek Resort Store, a historical Bigfoot landmark from 1976, is about to be demolished.",
        "tags": [
            "Bigfoot",
            "landmark",
            "demolition"
        ],
        "location": "Bluff Creek",
        "tragedy": true,
        "latitude": 39.5575475,
        "longitude": -86.2208223,
        "text": "Historical Bigfoot Landmark Soon To Be Demolished: The Bluff Creek Resort Store pictured above in 1976 was t... http://t.co/TW0SEv1N6C"
    },
    {
        "summary": "Six Palestinians kidnapped in Hebron following the demolition of a home in the West Bank.",
        "tags": [
            "Palestinians",
            "WestBank",
            "Hebron",
            "homeDemolition"
        ],
        "location": "Hebron",
        "tragedy": true,
        "latitude": 42.4716853,
        "longitude": -88.432318,
        "text": "Six Palestinians Kidnapped in West Bank Hebron Home Demolished - International Middle East Media Center http://t.co/J9UzIIQ3PX"
    },
    {
        "summary": "A journalist's house in Uttarakhand was demolished after exposing corruption.",
        "tags": [
            "Uttarakhand",
            "journalism",
            "corruption"
        ],
        "location": "Uttarakhand",
        "tragedy": true,
        "latitude": 30.0417376,
        "longitude": 79.089691,
        "text": "Uttarakhand: Journalist's house demolished who exposed corruption - Oneindia http://t.co/Ro1aWWuDYE"
    },
    {
        "summary": "Trains derail in Madhya Pradesh due to flash flood in India.",
        "tags": [
            "India",
            "rail",
            "crash",
            "derail",
            "flash",
            "flood"
        ],
        "location": "Madhya Pradesh",
        "tragedy": true,
        "latitude": 23.8143419,
        "longitude": 77.5340719,
        "text": "BBC News - India rail crash: Trains derail in Madhya Pradesh flash flood http://t.co/9UFemKfIiv"
    },
    {
        "summary": "A twin train derailment in India results in at least 24 deaths.",
        "tags": [
            "world"
        ],
        "location": "India",
        "tragedy": true,
        "latitude": 22.3511148,
        "longitude": 78.6677428,
        "text": "Google News - A Twin Train Derailment in India Leaves at Least 24 Dead - TIME http://t.co/yf56oK7Pgp #world"
    },
    {
        "summary": "A group of villagers in Madhya Pradesh saved over 70 passengers after a train derailment.",
        "tags": [],
        "location": "Madhya Pradesh",
        "tragedy": true,
        "latitude": 23.8143419,
        "longitude": 77.5340719,
        "text": "Madhya Pradesh Train Derailment: Village Youth Saved Many Lives: A group of villagers saved over 70 passengers' lives after two train..."
    },
    {
        "summary": "Suresh Prabhu describes the Harda derailment as a natural calamity.",
        "tags": [
            "IndianNews"
        ],
        "location": "Harda",
        "tragedy": true,
        "latitude": 22.2427973,
        "longitude": 77.1179173,
        "text": "Latest : Suresh Prabhu calls Harda derailment a natural calamity; officials feel ... - Economic Ti... http://t.co/6bCIvdaEa0 #IndianNews"
    },
    {
        "summary": "A village youth in Madhya Pradesh saved over 70 passengers' lives following a train derailment.",
        "tags": [],
        "location": "Madhya Pradesh",
        "tragedy": true,
        "latitude": 23.8143419,
        "longitude": 77.5340719,
        "text": "Madhya Pradesh Train Derailment: Village Youth Saved Many Lives: A group of villagers saved over 70 passengers' lives after two train..."
    },
    {
        "summary": "Flood in Kaduna has resulted in two deaths and the destruction of 60 houses.",
        "tags": [
            "Flood",
            "Kaduna"
        ],
        "location": "Kaduna",
        "tragedy": true,
        "latitude": 10.5182899,
        "longitude": 7.4359863,
        "text": "#TheSun Flood: Two people dead 60 houses destroyed in Kaduna: Two people have been reportedly killed and 60 h...  http://t.co/Aawmx5w9sh"
    },
    {
        "summary": "A space battle at Star O784 involved 2 fleets with 3946 ships, resulting in 14 destroyed.",
        "tags": [],
        "location": "Star O784",
        "tragedy": true,
        "latitude": -14.6909792,
        "longitude": -75.1446041,
        "text": "Black Eye 9: A space battle occurred at Star O784 involving 2 fleets totaling 3946 ships with 14 destroyed"
    },
    {
        "summary": "About 148 houses in Sokoto were destroyed by flooding on Saturday.",
        "tags": [
            "Flood",
            "Sokoto",
            "disaster"
        ],
        "location": "Sokoto",
        "tragedy": true,
        "latitude": 13.0611195,
        "longitude": 5.3152203,
        "text": "(SJ GIST): 148 Houses Farm Produce Destroyed By Flood In Sokoto: About 148 houses were on Saturday destroyed ... http://t.co/vqU1Y31hKU"
    },
    {
        "summary": "Flood in Kaduna results in two deaths and 60 houses destroyed.",
        "tags": [
            "Flood",
            "Kaduna"
        ],
        "location": "Kaduna",
        "tragedy": true,
        "latitude": 10.5182899,
        "longitude": 7.4359863,
        "text": "Flood: Two people dead 60 houses destroyed in Kaduna http://t.co/8H2SP6Ze3o"
    },
    {
        "summary": "Remember Hiroshima destroyed by nuclear bomb; such an event should never happen again, yet it is highly likely to recur.",
        "tags": [
            "Hiroshima",
            "Nuclear"
        ],
        "location": "Hiroshima",
        "tragedy": true,
        "latitude": 34.3917241,
        "longitude": 132.4517589,
        "text": "Remember #Hiroshima destroyed by #Nuclear bomb..an occurrence should never ever happen again yet highly likely recur http://t.co/mB3MJevBb0"
    },
    {
        "summary": "HitchBot, after traveling Europe peacefully, was destroyed in America after two weeks, illustrating a lesson to be learned.",
        "tags": [],
        "location": "America",
        "tragedy": true,
        "latitude": 39.7837304,
        "longitude": -100.445882,
        "text": "HitchBot travels Europe and greeted with open arms. Gets destroyed after two weeks in america. There's a lesson to be learned here."
    },
    {
        "summary": "19000 homes destroyed in Gaza with none rebuilt, calling to join the effort to break the blockade.",
        "tags": [
            "Gaza",
            "OpenGaza"
        ],
        "location": "Gaza",
        "tragedy": true,
        "latitude": -23.328398,
        "longitude": 32.8066057,
        "text": "19000 homes destroyed in Gaza -- ZERO rebuilt. Join me in busting the blockade! Sign &amp; RT #Gaza #OpenGaza https://t.co/WF9GMhjh2M"
    },
    {
        "summary": "An article discussing bureaucrats who singled out Hiroshima for destruction.",
        "tags": [],
        "location": "Hiroshima",
        "tragedy": true,
        "latitude": 34.3917241,
        "longitude": 132.4517589,
        "text": "Related News: The Bureaucrats Who Singled Out Hiroshima for Destruction - Global - The Atlantic |  http://t.co/Tnex4HUsnp"
    },
    {
        "summary": "Obama declares disaster for Typhoon-affected Saipan.",
        "tags": [
            "Obama",
            "disaster",
            "Typhoon",
            "Saipan"
        ],
        "location": "Saipan",
        "tragedy": true,
        "latitude": 15.1909825,
        "longitude": 145.746743,
        "text": "Obama Declares Disaster for Typhoon-Devastated Saipan"
    },
    {
        "summary": "Obama Signs disaster declaration for Typhoon-affected Saipan.",
        "tags": [],
        "location": "Saipan",
        "tragedy": true,
        "latitude": 15.1909825,
        "longitude": 145.746743,
        "text": "Obama Declares Disaster for Typhoon-Devastated Saipan: Obama signs disaster declaration for Northern Marians a... http://t.co/AslUFEKOXN"
    },
    {
        "summary": "Obama declares disaster for Typhoon-affected Saipan and Northern Marians.",
        "tags": [],
        "location": "Saipan",
        "tragedy": true,
        "latitude": 15.1909825,
        "longitude": 145.746743,
        "text": "Obama Declares Disaster for Typhoon-Devastated Saipan: Obama signs disaster declaration for Northern Marians a... http://t.co/9i6CrCRq2m"
    },
    {
        "summary": "Obama signs disaster declaration for Typhoon-affected Saipan.",
        "tags": [
            "Obama",
            "disaster",
            "Typhoon",
            "Saipan"
        ],
        "location": "Saipan",
        "tragedy": true,
        "latitude": 15.1909825,
        "longitude": 145.746743,
        "text": "Obama Declares Disaster for Typhoon-Devastated Saipan: Obama signs disaster declaration for Northern Marians a... http://t.co/lEYJwNnAH8"
    },
    {
        "summary": "The tweet reflects on the importance of forgiveness, mutual respect, and peace in light of past devastation in Hiroshima and Nagasaki.",
        "tags": [
            "forgiveness",
            "respect",
            "peace",
            "Remember",
            "Hiroshima",
            "Nagasaki"
        ],
        "location": "Hiroshima",
        "tragedy": true,
        "latitude": 34.3917241,
        "longitude": 132.4517589,
        "text": "Despite past devastation fortunately #forgiveness mutual #respect and #peace emerged.  #Remember #Hiroshima and #Nagasaki"
    },
    {
        "summary": "A sad reminder of nuclear devastation reported by Washington Post.",
        "tags": [],
        "location": "Washington",
        "tragedy": true,
        "latitude": 38.8950368,
        "longitude": -77.0365427,
        "text": "HQhed mhtw4fnet\n\nA sad reminder of nuclear devastation - Washington Post"
    },
    {
        "summary": "At least 18 houses and 5 bridges destroyed in flash floods in Gilgit-Baltistan on Wednesday.",
        "tags": [
            "floods",
            "Gilgit",
            "Baltistan"
        ],
        "location": "Gilgit-Baltistan",
        "tragedy": true,
        "latitude": 35.9999972,
        "longitude": 75.0000023,
        "text": "At least 18 houses 5 bridges destroyed in flash #floods in #Gilgit-#Baltistan on Wednesday. http://t.co/HSJcR45SIS http://t.co/dQ931ea6Pr"
    },
    {
        "summary": "Japan still struggles with its wartime past 70 years after the atomic bombings.",
        "tags": [],
        "location": "Japan",
        "tragedy": true,
        "latitude": 36.5748441,
        "longitude": 139.2394179,
        "text": "70 Years After Atomic Bombs Japan Still Struggles With War Past: The anniversary of the devastation wrought b... http://t.co/JESoSSDjjH"
    },
    {
        "summary": "Japan is still grappling with its wartime past 70 years after the atomic bombings.",
        "tags": [],
        "location": "Japan",
        "tragedy": true,
        "latitude": 36.5748441,
        "longitude": 139.2394179,
        "text": "70 Years After Atomic Bombs Japan Still Struggles With Wartime Past: The anniversary of the devastation wroug... http://t.co/AU6Sm5FaMq"
    },
    {
        "summary": "IRIN Asia reports on the complex red tape affecting Nepal's reconstruction efforts for natural disasters.",
        "tags": [
            "Disaster Risk Reduction",
            "Natural Disasters"
        ],
        "location": "Nepal",
        "tragedy": true,
        "latitude": 28.3780464,
        "longitude": 83.9999901,
        "text": "IRIN Asia | Red tape tangles Nepal reconstruction | Nepal | Disaster Risk Reduction | Natural Disasters http://t.co/q7LG6ncf7G"
    },
    {
        "summary": "A Palestinian family survived a boat disaster in the Mediterranean, but hundreds are feared dead in the latest incident.",
        "tags": [],
        "location": "Mediterranean",
        "tragedy": true,
        "latitude": 35.0000035,
        "longitude": 19.9999957,
        "text": "This Palestinian family was lucky but hundreds are feared dead in the latest boat disaster in the Mediterranean\nhttps://t.co/cT5v3LcNKD"
    },
    {
        "summary": "Heat wave is worsening the suffering of internally displaced Gazans.",
        "tags": [],
        "location": "Gazans",
        "tragedy": true,
        "latitude": 43.6518002,
        "longitude": 1.3362042,
        "text": "Heat wave adding to the misery of internally-displaced Gazans http://t.co/jW3hN9ewFT via @PressTV http://t.co/NYWrkRQ7Kn"
    },
    {
        "summary": "Thousands displaced after monsoon rains in Myanmar.",
        "tags": [
            "mightyworld",
            "monsoon",
            "Myanmar"
        ],
        "location": "Myanmar",
        "tragedy": true,
        "latitude": 17.1750495,
        "longitude": 95.9999652,
        "text": "#mightyworld Thousands displaced after monsoon rains in Myanmar: Tens of thousands of people have been displac... http://t.co/HkSDk89c6C"
    },
    {
        "summary": "Displaced Rohingya at Sittwe facing prison-like conditions amid genocide concerns.",
        "tags": [
            "Myanmar",
            "Rohingya",
            "Sittwe",
            "Prison like conditions",
            "genocide",
            "IHHen",
            "MSF",
            "Refugees"
        ],
        "location": "Sittwe",
        "tragedy": true,
        "latitude": 20.139197,
        "longitude": 92.8970859,
        "text": "#Myanmar  Displaced #Rohingya at #Sittwe point of no return http://t.co/3S8nhaPVCh  #Prison like conditions #genocide IHHen MSF Refugees"
    },
    {
        "summary": "A local family has been displaced by a fire and is seeking help via GoFundMe.",
        "tags": [],
        "location": "null",
        "tragedy": true,
        "latitude": 40.788106,
        "longitude": 35.0218961,
        "text": "local family displaced by fire http://t.co/f1nu18CArd via @gofundme  Lets help that family out please"
    },
    {
        "summary": "The tweet highlights the water usage for beef production and the potential chaos from Midwest drought.",
        "tags": [
            "water",
            "beef",
            "drought",
            "Midwest"
        ],
        "location": "Midwest",
        "tragedy": true,
        "latitude": 43.411391,
        "longitude": -106.280075,
        "text": "@MarcVegan @NonDairyKerry true. Also takes 16000 gal water to produce 1 lb hamburger. Drought in Midwest will be chaos"
    },
    {
        "summary": "Hundreds of migrants are feared to have drowned as a boat capsized off Libya.",
        "tags": [],
        "location": "Libya",
        "tragedy": true,
        "latitude": 26.8234472,
        "longitude": 18.1236723,
        "text": "Hundreds feared drowned as migrant boat capsizes off Libya: Hundreds of migrants are feared to have drowned af... http://t.co/bF3OhacB1r"
    },
    {
        "summary": "Hundreds of migrants are feared drowned after 700 people squeezed onto a boat in the Mediterranean.",
        "tags": [],
        "location": "Mediterranean",
        "tragedy": true,
        "latitude": 35.0000035,
        "longitude": 19.9999957,
        "text": "100s of migrants feared drowned after 700 squeeze onto boat in Mediterranean.  http://t.co/lsyPtk18se"
    },
    {
        "summary": "Hundreds of migrants are feared drowned after a boat capsizes off Libya.",
        "tags": [],
        "location": "Libya",
        "tragedy": true,
        "latitude": 26.8234472,
        "longitude": 18.1236723,
        "text": "Hundreds feared drowned as migrant boat capsizes off Libya: Hundreds of migrants are feared to have drowned af... http://t.co/Cbhe0eXIRA"
    },
    {
        "summary": "Hundreds of migrants feared drowned off Libya.",
        "tags": [
            "news",
            "bbc",
            "cnn",
            "msnbc",
            "nyt",
            "tcot",
            "tlot",
            "waar",
            "ccot",
            "ctot",
            "p2",
            "ap"
        ],
        "location": "Libya",
        "tragedy": true,
        "latitude": 26.8234472,
        "longitude": 18.1236723,
        "text": "Hundreds of migrants feared drowned off Libya: http://t.co/RTx4O0SIyH #news #bbc #cnn #msnbc #nyt #tcot #tlot #waar #ccot #ctot #p2 #ap"
    },
    {
        "summary": "Hundreds are feared drowned as a migrant boat capsizes off Libya.",
        "tags": [
            "NLU"
        ],
        "location": "Libya",
        "tragedy": true,
        "latitude": 26.8234472,
        "longitude": 18.1236723,
        "text": "Hundreds feared drowned as migrant boat capsizes off Libya http://t.co/U8H5s8oPs5 #NLU"
    },
    {
        "summary": "Hundreds are feared drowned after a migrant boat capsized off the coast of Libya.",
        "tags": [
            "dw_english"
        ],
        "location": "Libya",
        "tragedy": true,
        "latitude": 26.8234472,
        "longitude": 18.1236723,
        "text": "#dw_english Hundreds feared drowned as migrant boat capsizes off Libya: Hundreds of migrants are feared to hav... http://t.co/i9HW0qZoVy"
    },
    {
        "summary": "A nine-year-old in Maine saved his autistic brother from drowning by diving into a pool.",
        "tags": [],
        "location": "Maine",
        "tragedy": true,
        "latitude": 45.709097,
        "longitude": -68.8590201,
        "text": "Boy saves autistic brother from drowning: A nine-year-old in Maine dove into a pool to save his autistic brother from drowning"
    },
    {
        "summary": "A nine-year-old in Maine saved his autistic brother from drowning.",
        "tags": [],
        "location": "Maine",
        "tragedy": true,
        "latitude": 45.709097,
        "longitude": -68.8590201,
        "text": "Boy saves autistic brother from drowning: A nine-year-old in Maine dove into a pool to save his autistic brother from drowning"
    },
    {
        "summary": "Children traumatized after the Nepal earthquake are educated on coping mechanisms.",
        "tags": [],
        "location": "Nepal",
        "tragedy": true,
        "latitude": 28.3780464,
        "longitude": 83.9999901,
        "text": "#Children traumatised after the Nepal earthquake are educated on coping mechanisms.   http://t.co/UbwDBydK1a"
    },
    {
        "summary": "A South Side factory in Columbus was penalized $17,000 after a worker was electrocuted.",
        "tags": [
            "Columbus",
            "Ohio",
            "news"
        ],
        "location": "Columbus",
        "tragedy": true,
        "latitude": 39.9622601,
        "longitude": -83.0007065,
        "text": "South Side factory where worker electrocuted pays $17000 penalty http://t.co/PENJHc4ZCx #Columbus #Ohio #news"
    },
    {
        "summary": "Calgary is experiencing significant impacts from summer storms, prompting the city to activate its emergency plan.",
        "tags": [
            "yyc",
            "abstorm"
        ],
        "location": "Calgary",
        "tragedy": true,
        "latitude": 51.0456064,
        "longitude": -114.057541,
        "text": "Calgary takes another beating from summer storms; City activates emergency plan #yyc #abstorm http://t.co/iQIXjtUEwH"
    },
    {
        "summary": "A tweet about evacuating people from a place referred to as hell, mentioning Harry Styles and Shahada.",
        "tags": [
            "Hurry",
            "Evacuate",
            "Hell",
            "Shahada",
            "Class sick"
        ],
        "location": "Shahada",
        "tragedy": true,
        "latitude": 22.5863195,
        "longitude": 75.7680964,
        "text": "SALHA(1):HARRY STYLES(2)U KNOW WHERE IS UR P_EOPLE#HURRY#EVACUATE THEM FROM#HELL.#JUST SHAHADA&amp;'PICK#ME'.#CLASS_SICK http://t.co/UpdDVr6jva"
    },
    {
        "summary": "A potential worsening fire in the Catalinas may lead to evacuation and no school tomorrow.",
        "tags": [
            "fire",
            "Catalinas",
            "evacuation",
            "school cancellation"
        ],
        "location": "Catalinas",
        "tragedy": true,
        "latitude": -34.596514,
        "longitude": -58.3720955,
        "text": "What if the fire up in the Catalinas gets worse and we have to evacuate the area. Aka no school tomorrow"
    },
    {
        "summary": "My father died when the north tower collapsed on him while trying to evacuate people.",
        "tags": [],
        "location": "North Tower",
        "tragedy": true,
        "latitude": 40.7539277,
        "longitude": -74.0005544,
        "text": "my father fucking died when the north tower collapsed ON HIM as he was trying to evacuate more people from the building."
    },
    {
        "summary": "There are numerous fires in Northern California that are difficult to control, and people are praying for firefighters, pilots, support crews, and evacuees.",
        "tags": [],
        "location": "Northern California",
        "tragedy": true,
        "latitude": 35.1345127,
        "longitude": 33.9225856,
        "text": "So many fires in NorCal they can't fight some of them. \n\nPray for our firefighters air tanker pilots support crews &amp; evacuated people."
    },
    {
        "summary": "A unit in Fortitude Valley was damaged and residents were evacuated following a fire that broke out after 7am.",
        "tags": [
            "FortitudeValley",
            "7News"
        ],
        "location": "Fortitude Valley",
        "tragedy": true,
        "latitude": -27.4572735,
        "longitude": 153.0362663,
        "text": "#FortitudeValley unit damaged and residents evacuated after fire broke out after 7am this morning #7News http://t.co/8iZgxCeLcc"
    },
    {
        "summary": "A London warship exploded in 1665 due to sailors recycling artillery cartridges.",
        "tags": [
            "news",
            "science"
        ],
        "location": "London",
        "tragedy": true,
        "latitude": 51.5074456,
        "longitude": -0.1277653,
        "text": "#news #science London warship exploded in 1665 because sailors were recycling artillery cartridges: A dive to ... http://t.co/r4WGXrA59M"
    },
    {
        "summary": "The tweet reflects on the 70th anniversary of the atomic bombing of Hiroshima, highlighting the immediate loss of 70,000 to 80,000 lives.",
        "tags": [
            "Hiroshima",
            "atomicbomb",
            "history",
            "anniversary"
        ],
        "location": "Hiroshima",
        "tragedy": true,
        "latitude": 34.3917241,
        "longitude": 132.4517589,
        "text": "At this moment 70 years ago (local time) the 'Little Boy' atomic bomb exploded over Hiroshima instantly killing at least 70-80000 people."
    },
    {
        "summary": "One person injured in a boat explosion in Naples.",
        "tags": [],
        "location": "Naples",
        "tragedy": true,
        "latitude": 40.8358846,
        "longitude": 14.2487679,
        "text": "1 injured in Naples boat explosion http://t.co/89lcTH3Sx1"
    },
    {
        "summary": "An eyewitness account from Hiroshima on August 6, 1945, describing it as mankind's worst invention.",
        "tags": [
            "Hiroshima"
        ],
        "location": "Hiroshima",
        "tragedy": true,
        "latitude": 34.3917241,
        "longitude": 132.4517589,
        "text": "Read an eyewitness account from #Hiroshima on Aug. 6 1945 http://t.co/sbIP9g52YQ Mankind's worst invention."
    },
    {
        "summary": "A discussion on how 'Little Boy' impacted the people of Hiroshima through eyewitness testimonials.",
        "tags": [],
        "location": "Hiroshima",
        "tragedy": true,
        "latitude": 34.3917241,
        "longitude": 132.4517589,
        "text": "How 'Little Boy' Affected the People In Hiroshima - Eyewitness Testimonials! - https://t.co/5x5hSV5sKO"
    },
    {
        "summary": "Thousands are living on the streets of Cape Town according to Eyewitness News.",
        "tags": [],
        "location": "Cape Town",
        "tragedy": true,
        "latitude": -33.9288301,
        "longitude": 18.4172197,
        "text": "Cape Town: Thousands living on Cape Town's streets - Eyewitness News: Eyewitness NewsThousands living on Cape ... http://t.co/nAo6EWCPK2"
    },
    {
        "summary": "A Dutch crane collapse demolishes houses, captured dramatically on eyewitness video.",
        "tags": [],
        "location": "Netherlands",
        "tragedy": true,
        "latitude": 52.2434979,
        "longitude": 5.6343227,
        "text": "Dutch crane collapses demolishes houses: Dramatic eyewitness video captures the moment a Dutch crane hoisting...  http://t.co/8PpZNGYAqE"
    },
    {
        "summary": "A Dutch crane collapse demolishes houses, captured in dramatic eyewitness video.",
        "tags": [],
        "location": "Dutch",
        "tragedy": true,
        "latitude": 38.8050976,
        "longitude": -80.6181492,
        "text": "Dutch crane collapses demolishes houses: Dramatic eyewitness video captures the moment a Dutch crane hoisting... http://t.co/AJHKfh4e7G"
    },
    {
        "summary": "Russian 'Food Crematoria' provoke outrage amid crisis famine memories.",
        "tags": [
            "Ukraine"
        ],
        "location": "Ukraine",
        "tragedy": true,
        "latitude": 49.4871968,
        "longitude": 31.2718321,
        "text": "'Russian 'Food Crematoria' Provoke Outrage Amid Crisis Famine Memories' by REUTERS via NYT http://t.co/jbYjbQEoiK #Ukraine"
    },
    {
        "summary": "A famine monument was erected in Washington to commemorate those who perished in the Ukraine famine.",
        "tags": [
            "IntlDevelopment",
            "Ukraine",
            "Famine",
            "Monument"
        ],
        "location": "Washington",
        "tragedy": true,
        "latitude": 38.8950368,
        "longitude": -77.0365427,
        "text": "#IntlDevelopment Ukraine Famine Monument Erected In Washington: \u0089\u00db_ who perished in the Ukraine famine of the 19...  http://t.co/nUPy6EPAWn"
    },
    {
        "summary": "A famine monument has been erected in Kyiv, Ukraine, as reported by Radio Free Europe/Radio Liberty.",
        "tags": [
            "Ukraine",
            "Kyiv",
            "News",
            "Kiev",
            "Ukrainian",
            "Ua"
        ],
        "location": "Kyiv",
        "tragedy": true,
        "latitude": 50.4500336,
        "longitude": 30.5241361,
        "text": "#Ukraine #Kyiv #News Radio Free Europe/Radio Liberty: Ukraine famine monument erected in ... http://t.co/ME5u1YqH4i #Kiev #Ukrainian #Ua"
    },
    {
        "summary": "Police investigate a fatal shooting on 71 Highway.",
        "tags": [],
        "location": "71 Highway",
        "tragedy": true,
        "latitude": 51.5207221,
        "longitude": -0.7540287,
        "text": "Police investigate fatal shooting on 71 Highway http://t.co/0KJjdaOJHI"
    },
    {
        "summary": "A trim error caused a fatal Greek F-16 crash according to a NATO safety investigation.",
        "tags": [],
        "location": "Greece",
        "tragedy": true,
        "latitude": 38.9953683,
        "longitude": 21.9877132,
        "text": "Trim error led to fatal Greek F-16 crash: ?A NATO safety investigation board report has determined that the ma... http://t.co/YhSahLKQo4"
    },
    {
        "summary": "Investigators shift focus to cause of fatal Waimate fire",
        "tags": [],
        "location": "Waimate",
        "tragedy": true,
        "latitude": -44.7338811,
        "longitude": 171.042339,
        "text": "Investigators shift focus to cause of fatal Waimate fire http://t.co/ej0mewOupS"
    },
    {
        "summary": "Police continue to investigate a fatal shooting at Vermont & 14th Street.",
        "tags": [],
        "location": "Vermont & 14th Street",
        "tragedy": true,
        "latitude": 29.8069872,
        "longitude": -81.3943472,
        "text": "Police continue to investigate fatal shooting on Vermont &amp; 14th Street\nhttp://t.co/daACJ5Hfmq"
    },
    {
        "summary": "Las Vegas is among the top 5 cities for red-light running fatalities.",
        "tags": [
            "Las Vegas",
            "red-light running",
            "fatalities",
            "News3LV"
        ],
        "location": "Las Vegas",
        "tragedy": true,
        "latitude": 36.1674263,
        "longitude": -115.1484131,
        "text": "Las Vegas in top 5 cities for red-light running fatalities - News3LV http://t.co/rEt82MdQnG"
    },
    {
        "summary": "Seattle's deadliest red light runner intersections revealed.",
        "tags": [
            "Seattle",
            "redlight",
            "traffic"
        ],
        "location": "Seattle",
        "tragedy": true,
        "latitude": 47.6038321,
        "longitude": -122.330062,
        "text": "Wow 3 are WSEA RT @KING5Seattle: Seattle's deadliest red light runner intersections revealed http://t.co/zqUsy2k4ws http://t.co/OX6dHXEUwe"
    },
    {
        "summary": "The NJ Turnpike reopens after a truck fire in Linden that resulted in a driver's death.",
        "tags": [
            "NJTurnpike",
            "NJTurnpikeReopens",
            "TruckFire",
            "Linden"
        ],
        "location": "Linden",
        "tragedy": true,
        "latitude": 33.0123537,
        "longitude": -94.3654707,
        "text": "Photo: #NJTurnpike \u00e5_ NJ Turnpike Reopens Hours After Truck Fire In Linden; Driver Dead | NJ Turnpike... http://t.co/8SRT9rGaX7"
    },
    {
        "summary": "A truck driver died in a fire on the Turnpike, with most lanes still closed according to police.",
        "tags": [],
        "location": "Turnpike",
        "tragedy": true,
        "latitude": 13.1227039,
        "longitude": -59.5418373,
        "text": "Truck driver died in Turnpike fire most lanes still closed police say http://t.co/tTmJgq6ayM via @njdotcom"
    },
    {
        "summary": "First responders relied on training during the Lafayette theater shooting.",
        "tags": [
            "Lafayette",
            "theater",
            "shooting"
        ],
        "location": "Lafayette",
        "tragedy": true,
        "latitude": 30.2262187,
        "longitude": -92.0178202,
        "text": "'The longer you wait the more people die': #Lafayette theater shooting first responders relied on training: http://t.co/yXOojnbr7m"
    },
    {
        "summary": "A police officer has been shot in Shreveport, and prayers are requested for the officers and responders.",
        "tags": [],
        "location": "Shreveport",
        "tragedy": true,
        "latitude": 32.5135356,
        "longitude": -93.7477839,
        "text": "SPD OFFICER SHOT - PLEASE PRAY\n\nPlease pray for the Shreveport Police Department and other first responders... http://t.co/Kx1YnSME5T"
    },
    {
        "summary": "The user predicted flooding in Calgary shortly after leaving a class.",
        "tags": [],
        "location": "Calgary",
        "tragedy": true,
        "latitude": 51.0456064,
        "longitude": -114.057541,
        "text": "How did I know as soon as I walked out of class that Calgary would flood again today"
    },
    {
        "summary": "Myanmar flood victims are in urgent need of more relief aid and food amid ongoing struggles with the flood aftermath.",
        "tags": [],
        "location": "Myanmar",
        "tragedy": true,
        "latitude": 17.1750495,
        "longitude": 95.9999652,
        "text": "Myanmar Flood Victims Need More Relief Aid and Food: Regions struggle with flood aftermath and dwindling suppl... http://t.co/O5adXdNnII"
    },
    {
        "summary": "Memorial unveiled for Travis County Deputy Jessica Hollis who was killed in September flooding.",
        "tags": [],
        "location": "Travis County",
        "tragedy": true,
        "latitude": 30.2878569,
        "longitude": -97.7561392,
        "text": "Memorial unveiled for Travis County Deputy Jessica Hollis who was killed in Sept. flooding http://t.co/uSiN3M9kgI http://t.co/Mo5lmviPw5"
    },
    {
        "summary": "Business at the Sponge Docks washed out by rain flooding.",
        "tags": [
            "BREAKING",
            "news"
        ],
        "location": "Sponge Docks",
        "tragedy": true,
        "latitude": 28.1558184,
        "longitude": -82.7620234,
        "text": "#BREAKING Business at the Sponge Docks washed out by rain flooding  /#news"
    },
    {
        "summary": "Encourages donations to help victims of flooding in Myanmar.",
        "tags": [],
        "location": "Myanmar",
        "tragedy": true,
        "latitude": 17.1750495,
        "longitude": 95.9999652,
        "text": "Donate to help Myanmar Flooding victims http://t.co/fuRVRES9Ks"
    },
    {
        "summary": "Pasco officials are impressed by drone videos showing flooded areas.",
        "tags": [],
        "location": "Pasco",
        "tragedy": true,
        "latitude": 28.2996183,
        "longitude": -82.4522702,
        "text": "Pasco officials impressed by drone video showing floods: Drone videos have given an up-close view of flooded areas\u0089\u00db_ http://t.co/PrUunEDids"
    },
    {
        "summary": "Floods in KPK are caused by the failure to build dams over 30 years of governance.",
        "tags": [
            "floods",
            "KPK",
            "dams",
            "Thar"
        ],
        "location": "KPK",
        "tragedy": true,
        "latitude": -37.6960332,
        "longitude": 145.0116642,
        "text": "@asgharchohan86 @AdilGhumro \nThere are floods in kpk because you guys couldn't build dams in 30 years you ruled.\nEven for your own Thar"
    },
    {
        "summary": "The tweet suggests that divine punishment is causing tornadoes and floods in America due to climate change.",
        "tags": [
            "FARRAKHAN",
            "QUOTE"
        ],
        "location": "America",
        "tragedy": true,
        "latitude": 39.7837304,
        "longitude": -100.445882,
        "text": "Who is bringing the tornadoes and floods. Who is bringing the climate change. God is after America He is plaguing her\n \n#FARRAKHAN #QUOTE"
    },
    {
        "summary": "Typhoon Soudelor approaches after floods in the Philippines resulted in 7 deaths and 2 missing persons.",
        "tags": [
            "Typhoon",
            "Floods",
            "Philippines"
        ],
        "location": "Philippines",
        "tragedy": true,
        "latitude": 12.7503486,
        "longitude": 122.7312101,
        "text": "Typhoon Soudelor approaches after 7 killed 2 missing in floods in Philippines http://t.co/hALJNnWrwi via @abc7chicago"
    },
    {
        "summary": "Myanmar floods are occurring during the low season for river cruising, affecting Pandaw River Expeditions.",
        "tags": [],
        "location": "Myanmar",
        "tragedy": true,
        "latitude": 17.1750495,
        "longitude": 95.9999652,
        "text": "Myanmar floods occur during low season for river cruising - Pandaw River Expeditions is currently operating only t... http://t.co/cQtTGrkwf6"
    },
    {
        "summary": "WorldVision is responding to floods in India and Myanmar affecting over 300,000 people.",
        "tags": [
            "WorldVision",
            "India",
            "MyanmarFlood"
        ],
        "location": "India",
        "tragedy": true,
        "latitude": 22.3511148,
        "longitude": 78.6677428,
        "text": "#WorldVision is responding to floods in #India and #MyanmarFlood with more than 300000 affected: http://t.co/eU8jypIzsd"
    },
    {
        "summary": "Bengal floods lead to blame game between CM Mamata Banerjee and BJP over relief funds.",
        "tags": [
            "Bengal",
            "floods",
            "MamataBanerjee",
            "BJP",
            "relieffunds"
        ],
        "location": "KOLKATA",
        "tragedy": true,
        "latitude": 22.5726459,
        "longitude": 88.3638953,
        "text": "Bengal floods: CM Mamata Banerjee blames DVC BJP claims state failed to use relief funds: KOLKATA: Even as fl... http://t.co/WFwWRcmi9t"
    },
    {
        "summary": "The U.S. Forest Service reports that more than half of its budget is spent on fires, highlighting concerns about global warming.",
        "tags": [
            "GlobalWarming"
        ],
        "location": "United States",
        "tragedy": true,
        "latitude": 39.7837304,
        "longitude": -100.445882,
        "text": "#GlobalWarming U.S. Forest Service says spending more than half of budget on fires: \u0089\u00db_  United States the agen...  http://t.co/mWiE5CeEIi"
    },
    {
        "summary": "Forest fires are burning in two provinces in Iran.",
        "tags": [
            "Iran",
            "IranElection"
        ],
        "location": "Iran",
        "tragedy": true,
        "latitude": 32.6475314,
        "longitude": 54.5643516,
        "text": "Stubborn forest fires burn in two provinces |RZ| http://t.co/yZO948652k #Iran #IranElection"
    },
    {
        "summary": "Property losses from northern CA wildfire nearly double.",
        "tags": [],
        "location": "Northern California",
        "tragedy": true,
        "latitude": 35.1345127,
        "longitude": 33.9225856,
        "text": "Property losses from northern CA wildfire nearly double http://t.co/fHqx7FiIVJ If you pray please remember CA people/forests/wildlife/water"
    },
    {
        "summary": "Hazardous waste drums have been dumped around Kodiak Island.",
        "tags": [],
        "location": "Kodiak Island",
        "tragedy": true,
        "latitude": 57.5433765,
        "longitude": -153.3574124,
        "text": "Drums of Hazardous Waste Dumped Around Kodiak Island: Someone has dumped drums of hazardous was... http://t.co/ZSnnrULaWo &gt;@alaskapublic"
    },
    {
        "summary": "Japan's heat wave has intensified, resulting in a death toll of 55.",
        "tags": [],
        "location": "Japan",
        "tragedy": true,
        "latitude": 36.5748441,
        "longitude": 139.2394179,
        "text": "Japan heat wave intensifies - death toll surges to 55: http://t.co/F1h1mzVSNn via @extinctionp"
    },
    {
        "summary": "The heat wave in Japan may have caused fatalities due to the ongoing hot weather.",
        "tags": [],
        "location": "Japan",
        "tragedy": true,
        "latitude": 36.5748441,
        "longitude": 139.2394179,
        "text": "Good morning. Slept about 6 hours. The heat wave hits Japan... The hot days still continue. I guess some people were killed by this climate."
    },
    {
        "summary": "Japan's heat wave intensifies with a rising death toll reaching 55.",
        "tags": [
            "heat",
            "Japan",
            "death toll"
        ],
        "location": "Japan",
        "tragedy": true,
        "latitude": 36.5748441,
        "longitude": 139.2394179,
        "text": "Japan heat wave intensifies \u0089\u00db\u00d2 death toll surges to 55 http://t.co/ZwPoDn3KOH"
    },
    {
        "summary": "Himika Amase claimed to be the only prophet who foresaw a hijack in March, as she predicted on her Twitter in February 2014.",
        "tags": [
            "hijack",
            "prophecy",
            "Twitter"
        ],
        "location": "Malaysia",
        "tragedy": true,
        "latitude": 4.5693754,
        "longitude": 102.2656823,
        "text": "Himika Amase is the only prophet in the world who foresaw 'hijack in March' as it was on her Jps Twitter in Feb 2014. malyasiaairlines. ???"
    },
    {
        "summary": "Chris Brown's aunt was held hostage in a closet by armed intruders at his LA home.",
        "tags": [
            "ChrisBrown",
            "homeinvasion",
            "LA",
            "armedintruders"
        ],
        "location": "Los Angeles",
        "tragedy": true,
        "latitude": 34.0536909,
        "longitude": -118.242766,
        "text": "Chris Brown's aunft was 'held hostage in a closet by armed intruders at his LA home while sin http://t.co/i1Fhb8QSZ7 http://t.co/7C5BG48BRJ"
    },
    {
        "summary": "Islamic State Sinai branch threatens to execute Croatian hostage in 48 hours.",
        "tags": [
            "Islamic State",
            "Sinai",
            "hostage",
            "Croatian"
        ],
        "location": "Sinai",
        "tragedy": true,
        "latitude": 44.244415,
        "longitude": -97.040895,
        "text": "Sinai branch of Islamic State threatens to execute Croatian hostage in 48 hours http://t.co/YvtcXrPt34"
    },
    {
        "summary": "Egypt affiliate threatens to kill Croatian hostage within 48 hours.",
        "tags": [
            "UPDATE",
            "Egypt",
            "Croatian",
            "hostage"
        ],
        "location": "Egypt",
        "tragedy": true,
        "latitude": 26.2540493,
        "longitude": 29.2675469,
        "text": "UPDATE 4-IS Egypt affiliate threatens to kill Croatian hostage in 48\u00e5\u00cahours http://t.co/C0zrqIk6KE"
    },
    {
        "summary": "An affiliate of IS Egypt threatens to kill a Croatian hostage within 48 hours.",
        "tags": [
            "IS",
            "Egypt",
            "hostage",
            "threat"
        ],
        "location": "Egypt",
        "tragedy": true,
        "latitude": 26.2540493,
        "longitude": 29.2675469,
        "text": "'IS Egypt affiliate threatens to kill Croatian hostage in 48 hours' - http://t.co/3LcgidRQpb"
    },
    {
        "summary": "ISIS threatens to kill Croatian hostage if Egypt does not release female prisoners within 48 hours.",
        "tags": [
            "ISIS",
            "Croatian",
            "hostage",
            "Egypt",
            "prisoners"
        ],
        "location": "Egypt",
        "tragedy": true,
        "latitude": 26.2540493,
        "longitude": 29.2675469,
        "text": "video says #ISIS Threatens To Kill Croatian Hostage 5oil-worker) If #Egypt Does Not Release Female Prisoners in 48 H http://t.co/GvpKrRdQnu"
    },
    {
        "summary": "One year after the IS massacre in Sinjar, Yazidis criticize the lack of action for the enslaved Yazidis.",
        "tags": [
            "IS",
            "Sinjar",
            "Yazidis"
        ],
        "location": "Sinjar",
        "tragedy": true,
        "latitude": 36.3192729,
        "longitude": 41.8598585,
        "text": "One Year On From #IS Massacre in #Sinjar Yazidis Blast Lack of Action over 3000--5000 Yazidis who remain enslaved: http://t.co/vnSn284ovw"
    },
    {
        "summary": "Yazidis in Sinjar Massacre criticize the lack of action over hostages.",
        "tags": [
            "denver",
            "billings",
            "rapidcity",
            "seattle",
            "cheyenne",
            "lasvegas"
        ],
        "location": "Sinjar",
        "tragedy": true,
        "latitude": 36.3192729,
        "longitude": 41.8598585,
        "text": "Sinjar Massacre Yazidis Blast Lack of Action Over Hostages http://t.co/fdU8aCnC2W #denver #billings #rapidcity #seattle #cheyenne #lasvegas"
    },
    {
        "summary": "Yazidis in Sinjar Massacre criticize lack of action over hostages.",
        "tags": [
            "denver",
            "billings",
            "rapidcity",
            "seattle",
            "cheyenne",
            "lasvegas"
        ],
        "location": "Sinjar",
        "tragedy": true,
        "latitude": 36.3192729,
        "longitude": 41.8598585,
        "text": "Sinjar Massacre Yazidis Blast Lack of Action Over Hostages http://t.co/fdU8aCnC2W #denver #billings #rapidcity #seattle #cheyenne #lasvegas"
    },
    {
        "summary": "WatchmanIS216 highlights the Sinjar Massacre and Yazidi hostages, criticizing the lack of action, while mentioning Portland.",
        "tags": [
            "Sinjar",
            "Massacre",
            "Yazidis",
            "Blast",
            "Lack of Action",
            "Hostages",
            "Portland"
        ],
        "location": "Portland",
        "tragedy": true,
        "latitude": 45.5202471,
        "longitude": -122.674194,
        "text": "RT WatchmanIS216: #Sinjar Massacre #Yazidis Blast Lack of Action Over Hostages http://t.co/79iQDYZjBS; Portland #\u0089\u00db_ http://t.co/0z1PvJVdpf"
    },
    {
        "summary": "Residents and artists remember the aftermath of Hurricane Katrina through artwork.",
        "tags": [],
        "location": "New Orleans",
        "tragedy": true,
        "latitude": 29.9561422,
        "longitude": -90.0733934,
        "text": "Residents artists remember aftermath of Hurricane Katrina through artwork - WDSU New Orleans: WDSU New Orlean... http://t.co/U6pAvbZoB3"
    },
    {
        "summary": "Brooklyn sites receive $2.6 million funding to recover from Hurricane Sandy's impact.",
        "tags": [],
        "location": "Brooklyn",
        "tragedy": true,
        "latitude": 40.6526006,
        "longitude": -73.9497211,
        "text": "Brooklyn Sites Get $2.6 Million to Undo Hurricane Sandy\u0089\u00db\u00aas Toll http://t.co/HukwD0RE2a"
    },
    {
        "summary": "Militants attacked a police post in Udhampur, injuring 2 SPOs.",
        "tags": [
            "Udhampur",
            "terror",
            "attack",
            "militants",
            "police"
        ],
        "location": "Udhampur",
        "tragedy": true,
        "latitude": 32.9219726,
        "longitude": 75.1331482,
        "text": "Udhampur terror attack: Militants attack police post 2 SPOs injured: Suspected militants tonight attacked a p... http://t.co/nZAFokxX0h"
    },
    {
        "summary": "A blast in Gaza has resulted in 4 deaths and dozens injured amidst summer war.",
        "tags": [],
        "location": "Gaza",
        "tragedy": true,
        "latitude": -23.328398,
        "longitude": 32.8066057,
        "text": "4 dead dozens injured in Gaza blast near house leveled in summer war - Washington Post: New York Times4 dead... http://t.co/7C2qhMwtv5"
    },
    {
        "summary": "Militants attack a police post in Udhampur, injuring 2 SPOs.",
        "tags": [
            "terror",
            "attack",
            "Udhampur",
            "police",
            "militants"
        ],
        "location": "Udhampur",
        "tragedy": true,
        "latitude": 32.9219726,
        "longitude": 75.1331482,
        "text": "#???? #?? #??? #??? Udhampur terror attack: Militants attack police post 2 SPOs injured - Times of   http://t.co/1KxsGlsTA7"
    },