[
    {
        "summary": "A forest fire at Spot Pond is causing geese to flee across the street, and saving them all is impossible.",
        "tags": [
            "forest fire",
            "Spot Pond",
            "geese",
            "emergency"
        ],
        "location": "Spot Pond",
        "tragedy": true,
        "latitude": 42.4560792,
        "longitude": -71.095841,
        "text": "there is a forest fire at spot pond, geese are fleeing across the street, I cannot save them all"
    },
    {
        "summary": "The tweet discusses apocalypse lighting caused by wildfires in Spokane.",
        "tags": [
            "Spokane",
            "wildfires"
        ],
        "location": "Spokane",
        "tragedy": true,
        "latitude": 47.6571934,
        "longitude": -117.42351,
        "text": "Apocalypse lighting. #Spokane #wildfires"
    },
    {
        "summary": "Typhoon Soudelor causes 28 deaths in China and Taiwan.",
        "tags": [],
        "location": "China",
        "tragedy": true,
        "latitude": 35.000074,
        "longitude": 104.999927,
        "text": "Typhoon Soudelor kills 28 in China and Taiwan"
    },
    {
        "summary": "Fire breaks out at Birmingham's Wholesale Market.",
        "tags": [],
        "location": "Birmingham",
        "tragedy": "true",
        "latitude": 52.4796992,
        "longitude": -1.9026911,
        "text": "Birmingham Wholesale Market is ablaze BBC News - Fire breaks out at Birmingham's Wholesale Market http://t.co/irWqCEZWEU"
    },
    {
        "summary": "Bins in front of a field were set ablaze, causing flames to reach a hydro pole, suspect possibly someone known.",
        "tags": [],
        "location": "Toronto",
        "tragedy": true,
        "latitude": 43.6534817,
        "longitude": -79.3839347,
        "text": "@CTVToronto the bins in front of the field by my house wer set ablaze the other day flames went rite up the hydro pole wonder if it was him"
    },
    {
        "summary": "A hit and run accident occurred on the 500 block of SE Vista Terrace in Gresham, Oregon, during cold weather.",
        "tags": [
            "accident",
            "hit and run",
            "cold"
        ],
        "location": "Gresham, OR",
        "tragedy": true,
        "latitude": 45.4978623,
        "longitude": -122.4329883,
        "text": "ACCIDENT - HIT AND RUN - COLD at 500 BLOCK OF SE VISTA TER GRESHAM OR [Gresham Police #PG15000044357] 10:35 #pdx911"
    },
    {
        "summary": "Chief Collins describes being the last international team in Nepal during an aftershock, acting as first responders.",
        "tags": [
            "Nepal",
            "aftershock",
            "response",
            "disaster"
        ],
        "location": "Nepal",
        "tragedy": true,
        "latitude": 28.3780464,
        "longitude": 83.9999901,
        "text": "'When the aftershock happened (Nepal) we were the last int'l team still there; in a way we were 1st responders.' Chief Collins @LACo_FD"
    },
    {
        "summary": "Reflecting on the enduring impact of Hiroshima and its historical scars.",
        "tags": [],
        "location": "Hiroshima",
        "tragedy": true,
        "latitude": 34.3917241,
        "longitude": 132.4517589,
        "text": "'We are still living in the aftershock of Hiroshima people are still the scars of history.' - Edward Bond http://t.co/engTl5wrGp"
    },
    {
        "summary": "The user found out about Rewind Music and expressed support following an airplane accident in California.",
        "tags": [],
        "location": "California",
        "tragedy": true,
        "latitude": 36.7014631,
        "longitude": -118.755997,
        "text": "@rewind_music found out about you guys today(regarding the accident on the airplane lol) &amp; became a fan! Sending love &amp; support from Cali~?"
    },
    {
        "summary": "The tweet asks about the Keio line station and inquires about an airplane accident near Chofu airport.",
        "tags": [],
        "location": "Chofu airport",
        "tragedy": true,
        "latitude": 35.6714147,
        "longitude": 139.5291911,
        "text": "@Mintechan Hihow are you? There is Keio line on the stationright? BTW do you know the airplane accident near Chofu airport this week?"
    },
    {
        "summary": "A Mexican airplane accident in Ocampo Coahuila resulted in the death of Francisco Garcia Castells, SubSecretariat of Coahuila government.",
        "tags": [
            "Mexican",
            "airplane",
            "accident",
            "Ocampo",
            "Coahuila",
            "Mexico",
            "deaths"
        ],
        "location": "Ocampo, Coahuila",
        "tragedy": true,
        "latitude": 28.0529459,
        "longitude": -102.9729103,
        "text": "Mexican airplane accident in Ocampo Coahuila MX on 7/29/25 killed Coahuila government SubSecretariat Francisco Garcia Castells age 42."
    },
    {
        "summary": "A picture from the Penn Township airplane accident.",
        "tags": [
            "UPDATE",
            "Penn",
            "Twp",
            "airplane",
            "accident"
        ],
        "location": "Penn Township",
        "tragedy": true,
        "latitude": 41.9407576,
        "longitude": -85.9333159,
        "text": "#UPDATE: Picture from the Penn Twp. airplane accident. http://t.co/6JfgDnZRlC"
    },
    {
        "summary": "Experts in France are examining airplane debris found on Reunion Island following a French air accident.",
        "tags": [
            "BreakingNews",
            "France",
            "ReunionIsland",
            "airplane",
            "debris",
            "accident"
        ],
        "location": "Reunion Island",
        "tragedy": true,
        "latitude": -21.1307379,
        "longitude": 55.5364801,
        "text": "#BreakingNews Experts in France begin examining airplane debris found on Reunion Island: French air accident e...  http://t.co/3XIcUvlvlJ"
    },
    {
        "summary": "Twelve people are feared dead in a Pakistani air ambulance helicopter crash.",
        "tags": [],
        "location": "Pakistan",
        "tragedy": true,
        "latitude": 30.3308401,
        "longitude": 71.247499,
        "text": "Twelve feared killed in Pakistani air ambulance helicopter crash http://t.co/zdsug0UjS7"
    },
    {
        "summary": "Twelve people are feared dead in a Pakistani air ambulance helicopter crash.",
        "tags": [],
        "location": "Pakistan",
        "tragedy": true,
        "latitude": 30.3308401,
        "longitude": 71.247499,
        "text": "http://t.co/B2FaSrt1tN Twelve feared killed in Pakistani air ambulance helicopter crash http://t.co/O8BJXnEPQm"
    },
    {
        "summary": "Francis Joseph's crack regiment was annihilated on the Carso Plateau on August 3, 1915.",
        "tags": [],
        "location": "Carso Plateau",
        "tragedy": true,
        "latitude": 45.7550942,
        "longitude": 13.7932829,
        "text": "Aug 3 1915\u0089\u00db\u00d3KAISERJAEGERS WIPED OUT.; Francis Joseph's Crack Regiment Annihilated on Carso Plateau.\nhttp://t.co/D1sPSwl66H"
    }
]